$GNVTG,,T,,M,0.057,N,0.106,K,D*3D
$GNGGA,173519.45,5227.28513,N,00501.98681,E,5,12,3.68,-4.1,M,45.9,M,1.5,0000*4E
$GNGLL,5227.28513,N,00501.98681,E,173519.45,A,D*7E
$GNRMC,173519.50,A,5227.28513,N,00501.98680,E,0.056,,290925,,,F,V*1C
$GNVTG,,T,,M,0.056,N,0.103,K,D*39
$GNGGA,173519.50,5227.28513,N,00501.98680,E,5,12,3.68,-4.1,M,45.9,M,1.5,0000*4B
$GNGLL,5227.28513,N,00501.98680,E,173519.50,A,D*7B
$GNRMC,173519.55,A,5227.28514,N,00501.98681,E,0.014,,290925,,,F,V*19
$GNVTG,,T,,M,0.014,N,0.025,K,D*3A
$GNGGA,173519.55,5227.28514,N,00501.98681,E,5,12,3.68,-4.1,M,45.9,M,1.6,0000*4B
$GNGLL,5227.28514,N,00501.98681,E,173519.55,A,D*78
$GNRMC,173519.60,A,5227.28514,N,00501.98681,E,0.062,,290925,,,F,V*1E
$GNVTG,,T,,M,0.062,N,0.115,K,D*39
$GNGGA,173519.60,5227.28514,N,00501.98681,E,5,12,3.68,-4.1,M,45.9,M,1.6,0000*4D
$GNGLL,5227.28514,N,00501.98681,E,173519.60,A,D*7E
$GNRMC,173519.65,A,5227.28514,N,00501.98680,E,0.142,,290925,,,F,V*19
$GNVTG,,T,,M,0.142,N,0.263,K,D*38
$GNGGA,173519.65,5227.28514,N,00501.98680,E,5,12,3.68,-4.1,M,45.9,M,1.7,0000*48
$GNGLL,5227.28514,N,00501.98680,E,173519.65,A,D*7A
$GNRMC,173519.70,A,5227.28514,N,00501.98681,E,0.079,,290925,,,F,V*15
$GNVTG,,T,,M,0.079,N,0.146,K,D*35
$GNGGA,173519.70,5227.28514,N,00501.98681,E,5,12,3.68,-4.1,M,45.9,M,1.7,0000*4D
$GNGLL,5227.28514,N,00501.98681,E,173519.70,A,D*7F
$GNRMC,173519.75,A,5227.28514,N,00501.98682,E,0.027,,290925,,,F,V*18
$GNVTG,,T,,M,0.027,N,0.050,K,D*38
$GNGGA,173519.75,5227.28514,N,00501.98682,E,5,12,3.68,-4.1,M,45.9,M,1.8,0000*44
$GNGLL,5227.28514,N,00501.98682,E,173519.75,A,D*79
$GNRMC,173519.80,A,5227.28515,N,00501.98682,E,0.088,,290925,,,F,V*16
$GNVTG,,T,,M,0.088,N,0.164,K,D*3B
$GNGGA,173519.80,5227.28515,N,00501.98682,E,5,12,3.68,-4.1,M,45.9,M,1.8,0000*4F
$GNGLL,5227.28515,N,00501.98682,E,173519.80,A,D*72
$GNRMC,173519.85,A,5227.28515,N,00501.98681,E,0.137,,290925,,,F,V*15
$GNVTG,,T,,M,0.137,N,0.253,K,D*39
$GNGGA,173519.85,5227.28515,N,00501.98681,E,5,12,3.68,-4.1,M,45.9,M,1.9,0000*48
$GNGLL,5227.28515,N,00501.98681,E,173519.85,A,D*74
$GNRMC,173519.90,A,5227.28515,N,00501.98682,E,0.093,,290925,,,F,V*1D
$GNVTG,,T,,M,0.093,N,0.172,K,D*36
$GNGGA,173519.90,5227.28515,N,00501.98682,E,5,12,3.68,-4.1,M,45.9,M,1.9,0000*4F
$GNGLL,5227.28515,N,00501.98682,E,173519.90,A,D*73
$GNRMC,173519.95,A,5227.28515,N,00501.98682,E,0.057,,290925,,,F,V*10
$GNVTG,,T,,M,0.057,N,0.106,K,D*3D
$GNGGA,173519.95,5227.28515,N,00501.98682,E,5,12,3.68,-4.1,M,45.9,M,2.0,0000*40
$GNGLL,5227.28515,N,00501.98682,E,173519.95,A,D*76
$GNRMC,173520.00,A,5227.28515,N,00501.98682,E,0.067,,290925,,,F,V*15
$GNVTG,,T,,M,0.067,N,0.124,K,D*3E
$GNGGA,173520.00,5227.28515,N,00501.98682,E,5,12,3.68,-4.1,M,45.9,M,2.0,0000*46
$GNGLL,5227.28515,N,00501.98682,E,173520.00,A,D*70
$GNRMC,173520.05,A,5227.28515,N,00501.98682,E,0.044,,290925,,,F,V*11
$GNVTG,,T,,M,0.044,N,0.082,K,D*32
$GNGGA,173520.05,5227.28515,N,00501.98682,E,5,12,3.68,-4.1,M,45.9,M,2.1,0000*42
$GNGLL,5227.28515,N,00501.98682,E,173520.05,A,D*75
$GNRMC,173520.10,A,5227.28515,N,00501.98681,E,0.130,,290925,,,F,V*14
$GNVTG,,T,,M,0.130,N,0.240,K,D*3C
$GNGGA,173520.10,5227.28515,N,00501.98681,E,5,12,3.68,-4.0,M,45.9,M,2.1,0000*44
$GNGLL,5227.28515,N,00501.98681,E,173520.10,A,D*72
$GNRMC,173520.15,A,5227.28516,N,00501.98681,E,0.167,,290925,,,F,V*10
$GNVTG,,T,,M,0.167,N,0.309,K,D*32
$GNGGA,173520.15,5227.28516,N,00501.98681,E,5,12,3.68,-4.1,M,45.9,M,2.2,0000*40
$GNGLL,5227.28516,N,00501.98681,E,173520.15,A,D*74
$GNRMC,173520.20,A,5227.28516,N,00501.98682,E,0.014,,290925,,,F,V*10
$GNVTG,,T,,M,0.014,N,0.026,K,D*39
$GNGGA,173520.20,5227.28516,N,00501.98682,E,5,12,3.68,-4.0,M,45.9,M,1.2,0000*47
$GNGLL,5227.28516,N,00501.98682,E,173520.20,A,D*71
$GNRMC,173520.25,A,5227.28516,N,00501.98682,E,0.035,,290925,,,F,V*16
$GNVTG,,T,,M,0.035,N,0.065,K,D*3D
$GNGGA,173520.25,5227.28516,N,00501.98682,E,5,12,3.68,-4.0,M,45.9,M,1.3,0000*43
$GNGLL,5227.28516,N,00501.98682,E,173520.25,A,D*74
$GNRMC,173520.30,A,5227.28516,N,00501.98682,E,0.032,,290925,,,F,V*15
$GNVTG,,T,,M,0.032,N,0.060,K,D*3F
$GNGGA,173520.30,5227.28516,N,00501.98682,E,5,12,3.68,-4.0,M,45.9,M,1.3,0000*47
$GNGLL,5227.28516,N,00501.98682,E,173520.30,A,D*70
$GNRMC,173520.35,A,5227.28516,N,00501.98681,E,0.155,,290925,,,F,V*13
$GNVTG,,T,,M,0.155,N,0.286,K,D*35
$GNGGA,173520.35,5227.28516,N,00501.98681,E,5,12,3.68,-4.0,M,45.9,M,1.4,0000*46
$GNGLL,5227.28516,N,00501.98681,E,173520.35,A,D*76
$GNRMC,173520.40,A,5227.28517,N,00501.98681,E,0.126,,290925,,,F,V*14
$GNVTG,,T,,M,0.126,N,0.233,K,D*3F
$GNGGA,173520.40,5227.28517,N,00501.98681,E,5,12,3.68,-4.0,M,45.9,M,1.4,0000*45
$GNGLL,5227.28517,N,00501.98681,E,173520.40,A,D*75
$GNRMC,173520.45,A,5227.28517,N,00501.98682,E,0.029,,290925,,,F,V*1C
$GNVTG,,T,,M,0.029,N,0.053,K,D*35
$GNGGA,173520.45,5227.28517,N,00501.98682,E,5,12,3.68,-4.0,M,45.9,M,1.5,0000*42
$GNGLL,5227.28517,N,00501.98682,E,173520.45,A,D*73
$GNRMC,173520.50,A,5227.28516,N,00501.98681,E,0.115,,290925,,,F,V*14
$GNVTG,,T,,M,0.115,N,0.212,K,D*3C
$GNGGA,173520.50,5227.28516,N,00501.98681,E,5,12,3.68,-4.0,M,45.9,M,1.5,0000*44
$GNGLL,5227.28516,N,00501.98681,E,173520.50,A,D*75
$GNRMC,173520.55,A,5227.28516,N,00501.98681,E,0.107,,290925,,,F,V*12
$GNVTG,,T,,M,0.107,N,0.198,K,D*3E
$GNGGA,173520.55,5227.28516,N,00501.98681,E,5,12,3.68,-4.0,M,45.9,M,1.6,0000*42
$GNGLL,5227.28516,N,00501.98681,E,173520.55,A,D*70
$GNRMC,173520.60,A,5227.28516,N,00501.98682,E,0.035,,290925,,,F,V*17
$GNVTG,,T,,M,0.035,N,0.064,K,D*3C
$GNGGA,173520.60,5227.28516,N,00501.98682,E,5,12,3.68,-4.0,M,45.9,M,1.6,0000*47
$GNGLL,5227.28516,N,00501.98682,E,173520.60,A,D*75
$GNRMC,173520.65,A,5227.28516,N,00501.98682,E,0.025,,290925,,,F,V*13
$GNVTG,,T,,M,0.025,N,0.046,K,D*3D
$GNGGA,173520.65,5227.28516,N,00501.98682,E,5,12,3.68,-4.0,M,45.9,M,1.7,0000*43
$GNGLL,5227.28516,N,00501.98682,E,173520.65,A,D*70
$GNRMC,173520.70,A,5227.28516,N,00501.98682,E,0.020,,290925,,,F,V*12
$GNVTG,,T,,M,0.020,N,0.036,K,D*3F
$GNGGA,173520.70,5227.28516,N,00501.98682,E,5,12,3.68,-4.0,M,45.9,M,1.7,0000*47
$GNGLL,5227.28516,N,00501.98682,E,173520.70,A,D*74
$GNRMC,173520.75,A,5227.28516,N,00501.98683,E,0.039,,290925,,,F,V*1E
$GNVTG,,T,,M,0.039,N,0.073,K,D*36
$GNGGA,173520.75,5227.28516,N,00501.98683,E,5,12,3.68,-4.1,M,45.9,M,1.8,0000*4D
$GNGLL,5227.28516,N,00501.98683,E,173520.75,A,D*70
$GNRMC,173520.80,A,5227.28516,N,00501.98684,E,0.052,,290925,,,F,V*1E
$GNVTG,,T,,M,0.052,N,0.096,K,D*30
$GNGGA,173520.80,5227.28516,N,00501.98684,E,5,12,3.68,-4.1,M,45.9,M,1.8,0000*40
$GNGLL,5227.28516,N,00501.98684,E,173520.80,A,D*7D
$GNRMC,173520.85,A,5227.28516,N,00501.98683,E,0.066,,290925,,,F,V*1B
$GNVTG,,T,,M,0.066,N,0.122,K,D*39
$GNGGA,173520.85,5227.28516,N,00501.98683,E,5,12,3.68,-4.1,M,45.9,M,1.9,0000*43
$GNGLL,5227.28516,N,00501.98683,E,173520.85,A,D*7F
$GNRMC,173520.90,A,5227.28516,N,00501.98684,E,0.046,,290925,,,F,V*1A
$GNVTG,,T,,M,0.046,N,0.085,K,D*37
$GNGGA,173520.90,5227.28516,N,00501.98684,E,5,12,3.68,-4.1,M,45.9,M,1.9,0000*40
$GNGLL,5227.28516,N,00501.98684,E,173520.90,A,D*7C
$GNRMC,173520.95,A,5227.28516,N,00501.98684,E,0.010,,290925,,,F,V*1C
$GNVTG,,T,,M,0.010,N,0.018,K,D*30
$GNGGA,173520.95,5227.28516,N,00501.98684,E,5,12,3.68,-4.1,M,45.9,M,2.0,0000*4F
$GNGLL,5227.28516,N,00501.98684,E,173520.95,A,D*79
$GNRMC,173521.00,A,5227.28516,N,00501.98684,E,0.044,,290925,,,F,V*10
$GNVTG,,T,,M,0.044,N,0.081,K,D*31
$GNGGA,173521.00,5227.28516,N,00501.98684,E,5,12,3.68,-4.1,M,45.9,M,2.0,0000*42
$GNGLL,5227.28516,N,00501.98684,E,173521.00,A,D*74
$GNRMC,173521.05,A,5227.28516,N,00501.98685,E,0.045,,290925,,,F,V*15
$GNVTG,,T,,M,0.045,N,0.083,K,D*32
$GNGGA,173521.05,5227.28516,N,00501.98685,E,5,12,3.68,-4.1,M,45.9,M,2.1,0000*47
$GNGLL,5227.28516,N,00501.98685,E,173521.05,A,D*70
$GNRMC,173521.10,A,5227.28516,N,00501.98685,E,0.014,,290925,,,F,V*15
$GNVTG,,T,,M,0.014,N,0.025,K,D*3A
$GNGGA,173521.10,5227.28516,N,00501.98685,E,5,12,3.68,-4.1,M,45.9,M,2.1,0000*43
$GNGLL,5227.28516,N,00501.98685,E,173521.10,A,D*74
$GNRMC,173521.15,A,5227.28515,N,00501.98685,E,0.059,,290925,,,F,V*1A
$GNVTG,,T,,M,0.059,N,0.110,K,D*34
$GNGGA,173521.15,5227.28515,N,00501.98685,E,5,12,3.68,-4.1,M,45.9,M,2.2,0000*46
$GNGLL,5227.28515,N,00501.98685,E,173521.15,A,D*72
$GNRMC,173521.20,A,5227.28515,N,00501.98685,E,0.049,,290925,,,F,V*1D
$GNVTG,,T,,M,0.049,N,0.091,K,D*3D
$GNGGA,173521.20,5227.28515,N,00501.98685,E,5,12,3.68,-4.1,M,45.9,M,1.2,0000*43
$GNGLL,5227.28515,N,00501.98685,E,173521.20,A,D*74
$GNRMC,173521.25,A,5227.28515,N,00501.98685,E,0.050,,290925,,,F,V*10
$GNVTG,,T,,M,0.050,N,0.092,K,D*36
$GNGGA,173521.25,5227.28515,N,00501.98685,E,5,12,3.68,-4.1,M,45.9,M,1.3,0000*47
$GNGLL,5227.28515,N,00501.98685,E,173521.25,A,D*71
$GNRMC,173521.30,A,5227.28515,N,00501.98686,E,0.036,,290925,,,F,V*17
$GNVTG,,T,,M,0.036,N,0.066,K,D*3D
$GNGGA,173521.30,5227.28515,N,00501.98686,E,5,12,3.68,-4.1,M,45.9,M,1.3,0000*40
$GNGLL,5227.28515,N,00501.98686,E,173521.30,A,D*76
$GNRMC,173521.35,A,5227.28515,N,00501.98686,E,0.028,,290925,,,F,V*1D
$GNVTG,,T,,M,0.028,N,0.052,K,D*35
$GNGGA,173521.35,5227.28515,N,00501.98686,E,5,12,3.68,-4.1,M,45.9,M,1.4,0000*42
$GNGLL,5227.28515,N,00501.98686,E,173521.35,A,D*73
$GNRMC,173521.40,A,5227.28515,N,00501.98686,E,0.042,,290925,,,F,V*13
$GNVTG,,T,,M,0.042,N,0.077,K,D*3E
$GNGGA,173521.40,5227.28515,N,00501.98686,E,5,12,3.68,-4.1,M,45.9,M,1.4,0000*40
$GNGLL,5227.28515,N,00501.98686,E,173521.40,A,D*71
$GNRMC,173521.45,A,5227.28515,N,00501.98686,E,0.034,,290925,,,F,V*17
$GNVTG,,T,,M,0.034,N,0.063,K,D*3A
$GNGGA,173521.45,5227.28515,N,00501.98686,E,5,12,3.68,-4.1,M,45.9,M,1.5,0000*44
$GNGLL,5227.28515,N,00501.98686,E,173521.45,A,D*74
$GNRMC,173521.50,A,5227.28515,N,00501.98686,E,0.094,,290925,,,F,V*19
$GNVTG,,T,,M,0.094,N,0.174,K,D*37
$GNGGA,173521.50,5227.28515,N,00501.98686,E,5,12,3.68,-4.1,M,45.9,M,1.5,0000*40
$GNGLL,5227.28515,N,00501.98686,E,173521.50,A,D*70
$GNRMC,173521.55,A,5227.28514,N,00501.98687,E,0.079,,290925,,,F,V*1F
$GNVTG,,T,,M,0.079,N,0.146,K,D*35
$GNGGA,173521.55,5227.28514,N,00501.98687,E,5,12,3.68,-4.1,M,45.9,M,1.6,0000*46
$GNGLL,5227.28514,N,00501.98687,E,173521.55,A,D*75
$GNRMC,173521.60,A,5227.28514,N,00501.98687,E,0.034,,290925,,,F,V*10
$GNVTG,,T,,M,0.034,N,0.064,K,D*3D
$GNGGA,173521.60,5227.28514,N,00501.98687,E,5,12,3.68,-4.1,M,45.9,M,1.6,0000*40
$GNGLL,5227.28514,N,00501.98687,E,173521.60,A,D*73
$GNRMC,173521.65,A,5227.28514,N,00501.98688,E,0.090,,290925,,,F,V*14
$GNVTG,,T,,M,0.090,N,0.167,K,D*31
$GNGGA,173521.65,5227.28514,N,00501.98688,E,5,12,3.68,-4.1,M,45.9,M,1.7,0000*4B
$GNGLL,5227.28514,N,00501.98688,E,173521.65,A,D*79
$GNRMC,173521.70,A,5227.28514,N,00501.98689,E,0.016,,290925,,,F,V*1F
$GNVTG,,T,,M,0.016,N,0.030,K,D*3C
$GNGGA,173521.70,5227.28514,N,00501.98689,E,5,12,3.68,-4.1,M,45.9,M,1.7,0000*4E
$GNGLL,5227.28514,N,00501.98689,E,173521.70,A,D*7C
$GNRMC,173521.75,A,5227.28513,N,00501.98689,E,0.061,,290925,,,F,V*1D
$GNVTG,,T,,M,0.061,N,0.113,K,D*3C
$GNGGA,173521.75,5227.28513,N,00501.98689,E,5,12,3.68,-4.1,M,45.9,M,1.8,0000*43
$GNGLL,5227.28513,N,00501.98689,E,173521.75,A,D*7E
$GNRMC,173521.80,A,5227.28513,N,00501.98689,E,0.048,,290925,,,F,V*1C
$GNVTG,,T,,M,0.048,N,0.088,K,D*34
$GNGGA,173521.80,5227.28513,N,00501.98689,E,5,12,3.68,-4.1,M,45.9,M,1.8,0000*49
$GNGLL,5227.28513,N,00501.98689,E,173521.80,A,D*74
$GNRMC,173521.85,A,5227.28513,N,00501.98690,E,0.102,,290925,,,F,V*1E
$GNVTG,,T,,M,0.102,N,0.189,K,D*3B
$GNGGA,173521.85,5227.28513,N,00501.98690,E,5,12,3.68,-4.2,M,45.9,M,1.9,0000*46
$GNGLL,5227.28513,N,00501.98690,E,173521.85,A,D*79
$GNRMC,173521.90,A,5227.28513,N,00501.98691,E,0.048,,290925,,,F,V*14
$GNVTG,,T,,M,0.048,N,0.090,K,D*3D
$GNGGA,173521.90,5227.28513,N,00501.98691,E,5,12,3.68,-4.2,M,45.9,M,1.9,0000*43
$GNGLL,5227.28513,N,00501.98691,E,173521.90,A,D*7C
$GNRMC,173521.95,A,5227.28513,N,00501.98691,E,0.053,,290925,,,F,V*1B
$GNVTG,,T,,M,0.053,N,0.099,K,D*3E
$GNGGA,173521.95,5227.28513,N,00501.98691,E,5,12,3.68,-4.2,M,45.9,M,2.0,0000*4C
$GNGLL,5227.28513,N,00501.98691,E,173521.95,A,D*79
$GNRMC,173522.00,A,5227.28512,N,00501.98691,E,0.073,,290925,,,F,V*17
$GNVTG,,T,,M,0.073,N,0.135,K,D*3B
$GNGGA,173522.00,5227.28512,N,00501.98691,E,5,12,3.68,-4.2,M,45.9,M,2.0,0000*42
$GNGLL,5227.28512,N,00501.98691,E,173522.00,A,D*77
$GNRMC,173522.05,A,5227.28512,N,00501.98692,E,0.082,,290925,,,F,V*1F
$GNVTG,,T,,M,0.082,N,0.152,K,D*34
$GNGGA,173522.05,5227.28512,N,00501.98692,E,5,12,3.68,-4.2,M,45.9,M,2.1,0000*45
$GNGLL,5227.28512,N,00501.98692,E,173522.05,A,D*71
$GNRMC,173522.10,A,5227.28512,N,00501.98693,E,0.049,,290925,,,F,V*1D
$GNVTG,,T,,M,0.049,N,0.090,K,D*3C
$GNGGA,173522.10,5227.28512,N,00501.98693,E,5,12,3.68,-4.2,M,45.9,M,2.1,0000*40
$GNGLL,5227.28512,N,00501.98693,E,173522.10,A,D*74
$GNRMC,173522.15,A,5227.28511,N,00501.98692,E,0.038,,290925,,,F,V*1C
$GNVTG,,T,,M,0.038,N,0.071,K,D*35
$GNGGA,173522.15,5227.28511,N,00501.98692,E,5,12,3.68,-4.2,M,45.9,M,2.2,0000*44
$GNGLL,5227.28511,N,00501.98692,E,173522.15,A,D*73
$GNRMC,173522.20,A,5227.28511,N,00501.98693,E,0.113,,290925,,,F,V*13
$GNVTG,,T,,M,0.113,N,0.210,K,D*38
$GNGGA,173522.20,5227.28511,N,00501.98693,E,5,12,3.68,-4.2,M,45.9,M,2.2,0000*43
$GNGLL,5227.28511,N,00501.98693,E,173522.20,A,D*74
$GNRMC,173522.25,A,5227.28511,N,00501.98694,E,0.062,,290925,,,F,V*16
$GNVTG,,T,,M,0.062,N,0.114,K,D*38
$GNGGA,173522.25,5227.28511,N,00501.98694,E,5,12,3.68,-4.2,M,45.9,M,1.3,0000*43
$GNGLL,5227.28511,N,00501.98694,E,173522.25,A,D*76
$GNRMC,173522.35,A,5227.28511,N,00501.98694,E,0.059,,290925,,,F,V*1F
$GNVTG,,T,,M,0.059,N,0.108,K,D*3D
$GNGGA,173522.35,5227.28511,N,00501.98694,E,5,12,3.68,-4.2,M,45.9,M,1.4,0000*45
$GNGLL,5227.28511,N,00501.98694,E,173522.35,A,D*77
$GNRMC,173522.40,A,5227.28511,N,00501.98695,E,0.047,,290925,,,F,V*13
$GNVTG,,T,,M,0.047,N,0.088,K,D*3B
$GNGGA,173522.40,5227.28511,N,00501.98695,E,5,12,3.68,-4.2,M,45.9,M,1.4,0000*46
$GNGLL,5227.28511,N,00501.98695,E,173522.40,A,D*74
$GNRMC,173522.45,A,5227.28511,N,00501.98695,E,0.080,,290925,,,F,V*1D
$GNVTG,,T,,M,0.080,N,0.148,K,D*3D
$GNGGA,173522.45,5227.28511,N,00501.98695,E,5,12,3.68,-4.2,M,45.9,M,1.5,0000*42
$GNGLL,5227.28511,N,00501.98695,E,173522.45,A,D*71
$GNRMC,173522.50,A,5227.28510,N,00501.98695,E,0.053,,290925,,,F,V*16
$GNVTG,,T,,M,0.053,N,0.098,K,D*3F
$GNGGA,173522.50,5227.28510,N,00501.98695,E,5,12,3.68,-4.2,M,45.9,M,1.5,0000*47
$GNGLL,5227.28510,N,00501.98695,E,173522.50,A,D*74
$GNRMC,173522.55,A,5227.28510,N,00501.98696,E,0.044,,290925,,,F,V*16
$GNVTG,,T,,M,0.044,N,0.082,K,D*32
$GNGGA,173522.55,5227.28510,N,00501.98696,E,5,12,3.68,-4.3,M,45.9,M,1.6,0000*43
$GNGLL,5227.28510,N,00501.98696,E,173522.55,A,D*72
$GNRMC,173522.60,A,5227.28510,N,00501.98697,E,0.061,,290925,,,F,V*16
$GNVTG,,T,,M,0.061,N,0.114,K,D*3B
$GNGGA,173522.60,5227.28510,N,00501.98697,E,5,12,3.68,-4.3,M,45.9,M,1.6,0000*44
$GNGLL,5227.28510,N,00501.98697,E,173522.60,A,D*75
$GNRMC,173522.65,A,5227.28510,N,00501.98698,E,0.150,,290925,,,F,V*1F
$GNVTG,,T,,M,0.150,N,0.278,K,D*31
$GNGGA,173522.65,5227.28510,N,00501.98698,E,5,12,3.68,-4.3,M,45.9,M,1.7,0000*4F
$GNGLL,5227.28510,N,00501.98698,E,173522.65,A,D*7F
$GNRMC,173522.70,A,5227.28509,N,00501.98698,E,0.098,,290925,,,F,V*16
$GNVTG,,T,,M,0.098,N,0.182,K,D*32
$GNGGA,173522.70,5227.28509,N,00501.98698,E,5,12,3.68,-4.3,M,45.9,M,1.7,0000*43
$GNGLL,5227.28509,N,00501.98698,E,173522.70,A,D*73
$GNRMC,173522.75,A,5227.28509,N,00501.98699,E,0.091,,290925,,,F,V*1B
$GNVTG,,T,,M,0.091,N,0.168,K,D*3F
$GNGGA,173522.75,5227.28509,N,00501.98699,E,5,12,3.68,-4.3,M,45.9,M,1.8,0000*48
$GNGLL,5227.28509,N,00501.98699,E,173522.75,A,D*77
$GNRMC,173522.80,A,5227.28508,N,00501.98700,E,0.094,,290925,,,F,V*14
$GNVTG,,T,,M,0.094,N,0.174,K,D*37
$GNGGA,173522.80,5227.28508,N,00501.98700,E,5,12,3.68,-4.3,M,45.9,M,1.8,0000*42
$GNGLL,5227.28508,N,00501.98700,E,173522.80,A,D*7D
$GNRMC,173522.85,A,5227.28508,N,00501.98700,E,0.081,,290925,,,F,V*15
$GNVTG,,T,,M,0.081,N,0.150,K,D*35
$GNGGA,173522.85,5227.28508,N,00501.98700,E,5,12,3.68,-4.3,M,45.9,M,1.9,0000*46
$GNGLL,5227.28508,N,00501.98700,E,173522.85,A,D*78
$GNRMC,173522.90,A,5227.28507,N,00501.98700,E,0.122,,290925,,,F,V*16
$GNVTG,,T,,M,0.122,N,0.226,K,D*3F
$GNGGA,173522.90,5227.28507,N,00501.98700,E,5,12,3.68,-4.3,M,45.9,M,1.9,0000*4D
$GNGLL,5227.28507,N,00501.98700,E,173522.90,A,D*73
$GNRMC,173522.95,A,5227.28506,N,00501.98701,E,0.184,,290925,,,F,V*1F
$GNVTG,,T,,M,0.184,N,0.341,K,D*33
$GNGGA,173522.95,5227.28506,N,00501.98701,E,5,12,3.68,-4.4,M,45.9,M,2.0,0000*45
$GNGLL,5227.28506,N,00501.98701,E,173522.95,A,D*76
$GNRMC,173523.05,A,5227.28507,N,00501.98703,E,0.240,,290925,,,F,V*1F
$GNVTG,,T,,M,0.240,N,0.445,K,D*3B
$GNGGA,173523.05,5227.28507,N,00501.98703,E,5,12,3.68,-4.4,M,45.9,M,2.1,0000*4F
$GNGLL,5227.28507,N,00501.98703,E,173523.05,A,D*7D
$GNRMC,173523.10,A,5227.28506,N,00501.98704,E,0.334,,290925,,,F,V*1F
$GNVTG,,T,,M,0.334,N,0.619,K,D*32
$GNGGA,173523.10,5227.28506,N,00501.98704,E,5,12,3.68,-4.4,M,45.9,M,2.1,0000*4D
$GNGLL,5227.28506,N,00501.98704,E,173523.10,A,D*7F
$GNRMC,173523.15,A,5227.28506,N,00501.98703,E,0.148,,290925,,,F,V*14
$GNVTG,,T,,M,0.148,N,0.275,K,D*35
$GNGGA,173523.15,5227.28506,N,00501.98703,E,5,12,3.68,-4.4,M,45.9,M,2.2,0000*4C
$GNGLL,5227.28506,N,00501.98703,E,173523.15,A,D*7D
$GNRMC,173523.20,A,5227.28505,N,00501.98701,E,0.115,,290925,,,F,V*1B
$GNVTG,,T,,M,0.115,N,0.214,K,D*3A
$GNGGA,173523.20,5227.28505,N,00501.98701,E,5,12,3.68,-4.4,M,45.9,M,2.2,0000*4B
$GNGLL,5227.28505,N,00501.98701,E,173523.20,A,D*7A
$GNRMC,173523.25,A,5227.28505,N,00501.98702,E,0.066,,290925,,,F,V*18
$GNVTG,,T,,M,0.066,N,0.122,K,D*39
$GNGGA,173523.25,5227.28505,N,00501.98702,E,5,12,3.68,-4.4,M,45.9,M,1.3,0000*4F
$GNGLL,5227.28505,N,00501.98702,E,173523.25,A,D*7C
$GNRMC,173523.30,A,5227.28505,N,00501.98704,E,0.118,,290925,,,F,V*12
$GNVTG,,T,,M,0.118,N,0.218,K,D*3B
$GNGGA,173523.30,5227.28505,N,00501.98704,E,5,12,3.68,-4.4,M,45.9,M,1.3,0000*4D
$GNGLL,5227.28505,N,00501.98704,E,173523.30,A,D*7E
$GNRMC,173523.35,A,5227.28505,N,00501.98705,E,0.035,,290925,,,F,V*18
$GNVTG,,T,,M,0.035,N,0.065,K,D*3D
$GNGGA,173523.35,5227.28505,N,00501.98705,E,5,12,3.68,-4.4,M,45.9,M,1.4,0000*4E
$GNGLL,5227.28505,N,00501.98705,E,173523.35,A,D*7A
$GNRMC,173523.40,A,5227.28505,N,00501.98705,E,0.071,,290925,,,F,V*1A
$GNVTG,,T,,M,0.071,N,0.131,K,D*3D
$GNGGA,173523.40,5227.28505,N,00501.98705,E,5,12,3.68,-4.4,M,45.9,M,1.4,0000*4C
$GNGLL,5227.28505,N,00501.98705,E,173523.40,A,D*78
$GNRMC,173523.45,A,5227.28505,N,00501.98705,E,0.129,,290925,,,F,V*13
$GNVTG,,T,,M,0.129,N,0.239,K,D*3A
$GNGGA,173523.45,5227.28505,N,00501.98705,E,5,12,3.68,-4.4,M,45.9,M,1.5,0000*48
$GNGLL,5227.28505,N,00501.98705,E,173523.45,A,D*7D
$GNRMC,173523.50,A,5227.28504,N,00501.98706,E,0.152,,290925,,,F,V*19
$GNVTG,,T,,M,0.152,N,0.281,K,D*35
$GNGGA,173523.50,5227.28504,N,00501.98706,E,5,12,3.68,-4.4,M,45.9,M,1.5,0000*4E
$GNGLL,5227.28504,N,00501.98706,E,173523.50,A,D*7B
$GNRMC,173523.55,A,5227.28504,N,00501.98706,E,0.120,,290925,,,F,V*19
$GNVTG,,T,,M,0.120,N,0.221,K,D*3A
$GNGGA,173523.55,5227.28504,N,00501.98706,E,5,12,3.68,-4.4,M,45.9,M,1.6,0000*48
$GNGLL,5227.28504,N,00501.98706,E,173523.55,A,D*7E
$GNRMC,173523.60,A,5227.28504,N,00501.98707,E,0.057,,290925,,,F,V*1F
$GNVTG,,T,,M,0.057,N,0.106,K,D*3D
$GNGGA,173523.60,5227.28504,N,00501.98707,E,5,12,3.68,-4.5,M,45.9,M,1.6,0000*4E
$GNGLL,5227.28504,N,00501.98707,E,173523.60,A,D*79
$GNRMC,173523.65,A,5227.28504,N,00501.98708,E,0.119,,290925,,,F,V*1E
$GNVTG,,T,,M,0.119,N,0.221,K,D*30
$GNGGA,173523.65,5227.28504,N,00501.98708,E,5,12,3.68,-4.5,M,45.9,M,1.7,0000*45
$GNGLL,5227.28504,N,00501.98708,E,173523.65,A,D*73
$GNRMC,173523.70,A,5227.28504,N,00501.98708,E,0.122,,290925,,,F,V*12
$GNVTG,,T,,M,0.122,N,0.227,K,D*3E
$GNGGA,173523.70,5227.28504,N,00501.98708,E,5,12,3.68,-4.5,M,45.9,M,1.7,0000*41
$GNGLL,5227.28504,N,00501.98708,E,173523.70,A,D*77
$GNRMC,173523.75,A,5227.28503,N,00501.98708,E,0.086,,290925,,,F,V*1F
$GNVTG,,T,,M,0.086,N,0.158,K,D*3A
$GNGGA,173523.75,5227.28503,N,00501.98708,E,5,12,3.68,-4.5,M,45.9,M,1.8,0000*4C
$GNGLL,5227.28503,N,00501.98708,E,173523.75,A,D*75
$GNRMC,173523.80,A,5227.28503,N,00501.98709,E,0.137,,290925,,,F,V*1F
$GNVTG,,T,,M,0.137,N,0.254,K,D*3E
$GNGGA,173523.80,5227.28503,N,00501.98709,E,5,12,3.68,-4.5,M,45.9,M,1.8,0000*47
$GNGLL,5227.28503,N,00501.98709,E,173523.80,A,D*7E
$GNRMC,173523.85,A,5227.28503,N,00501.98710,E,0.108,,290925,,,F,V*1E
$GNVTG,,T,,M,0.108,N,0.201,K,D*32
$GNGGA,173523.85,5227.28503,N,00501.98710,E,5,12,3.68,-4.5,M,45.9,M,1.9,0000*4B
$GNGLL,5227.28503,N,00501.98710,E,173523.85,A,D*73
$GNRMC,173523.90,A,5227.28503,N,00501.98711,E,0.079,,290925,,,F,V*1C
$GNVTG,,T,,M,0.079,N,0.146,K,D*35
$GNGGA,173523.90,5227.28503,N,00501.98711,E,5,12,3.68,-4.5,M,45.9,M,1.9,0000*4E
$GNGLL,5227.28503,N,00501.98711,E,173523.90,A,D*76
$GNRMC,173523.95,A,5227.28503,N,00501.98711,E,0.069,,290925,,,F,V*18
$GNVTG,,T,,M,0.069,N,0.128,K,D*3C
$GNGGA,173523.95,5227.28503,N,00501.98711,E,5,12,3.68,-4.5,M,45.9,M,2.0,0000*41
$GNGLL,5227.28503,N,00501.98711,E,173523.95,A,D*73
$GNRMC,173524.00,A,5227.28503,N,00501.98711,E,0.037,,290925,,,F,V*18
$GNVTG,,T,,M,0.037,N,0.068,K,D*32
$GNGGA,173524.00,5227.28503,N,00501.98711,E,5,12,3.68,-4.5,M,45.9,M,2.0,0000*4A
$GNGLL,5227.28503,N,00501.98711,E,173524.00,A,D*78
$GNRMC,173524.05,A,5227.28503,N,00501.98711,E,0.104,,290925,,,F,V*1C
$GNVTG,,T,,M,0.104,N,0.193,K,D*36
$GNGGA,173524.05,5227.28503,N,00501.98711,E,5,12,3.68,-4.5,M,45.9,M,2.1,0000*4E
$GNGLL,5227.28503,N,00501.98711,E,173524.05,A,D*7D
$GNRMC,173524.10,A,5227.28502,N,00501.98712,E,0.178,,290925,,,F,V*11
$GNVTG,,T,,M,0.178,N,0.330,K,D*36
$GNGGA,173524.10,5227.28502,N,00501.98712,E,5,12,3.68,-4.5,M,45.9,M,2.1,0000*48
$GNGLL,5227.28502,N,00501.98712,E,173524.10,A,D*7B
$GNRMC,173524.15,A,5227.28502,N,00501.98713,E,0.280,,290925,,,F,V*11
$GNVTG,,T,,M,0.280,N,0.518,K,D*3E
$GNGGA,173524.15,5227.28502,N,00501.98713,E,5,12,3.68,-4.5,M,45.9,M,2.2,0000*4F
$GNGLL,5227.28502,N,00501.98713,E,173524.15,A,D*7F
$GNRMC,173524.20,A,5227.28502,N,00501.98713,E,0.251,,290925,,,F,V*1B
$GNVTG,,T,,M,0.251,N,0.464,K,D*38
$GNGGA,173524.20,5227.28502,N,00501.98713,E,5,12,3.68,-4.5,M,45.9,M,1.2,0000*4A
$GNGLL,5227.28502,N,00501.98713,E,173524.20,A,D*79
$GNRMC,173524.30,A,5227.28501,N,00501.98712,E,0.202,,290925,,,F,V*1E
$GNVTG,,T,,M,0.202,N,0.374,K,D*38
$GNGGA,173524.30,5227.28501,N,00501.98712,E,5,12,3.68,-4.6,M,45.9,M,1.3,0000*4B
$GNGLL,5227.28501,N,00501.98712,E,173524.30,A,D*7A
$GNRMC,173524.35,A,5227.28502,N,00501.98712,E,0.209,,290925,,,F,V*13
$GNVTG,,T,,M,0.209,N,0.386,K,D*3E
$GNGGA,173524.35,5227.28502,N,00501.98712,E,5,12,3.68,-4.6,M,45.9,M,1.4,0000*4A
$GNGLL,5227.28502,N,00501.98712,E,173524.35,A,D*7C
$GNRMC,173524.40,A,5227.28502,N,00501.98713,E,0.045,,290925,,,F,V*1A
$GNVTG,,T,,M,0.045,N,0.084,K,D*35
$GNGGA,173524.40,5227.28502,N,00501.98713,E,5,12,3.68,-4.6,M,45.9,M,1.4,0000*49
$GNGLL,5227.28502,N,00501.98713,E,173524.40,A,D*7F
$GNRMC,173524.45,A,5227.28502,N,00501.98715,E,0.166,,290925,,,F,V*19
$GNVTG,,T,,M,0.166,N,0.307,K,D*3D
$GNGGA,173524.45,5227.28502,N,00501.98715,E,5,12,3.68,-4.6,M,45.9,M,1.5,0000*4B
$GNGLL,5227.28502,N,00501.98715,E,173524.45,A,D*7C
$GNRMC,173524.50,A,5227.28502,N,00501.98716,E,0.253,,290925,,,F,V*1B
$GNVTG,,T,,M,0.253,N,0.469,K,D*37
$GNGGA,173524.50,5227.28502,N,00501.98716,E,5,12,3.68,-4.6,M,45.9,M,1.5,0000*4C
$GNGLL,5227.28502,N,00501.98716,E,173524.50,A,D*7B
$GNRMC,173524.55,A,5227.28502,N,00501.98715,E,0.082,,290925,,,F,V*13
$GNVTG,,T,,M,0.082,N,0.152,K,D*34
$GNGGA,173524.55,5227.28502,N,00501.98715,E,5,12,3.68,-4.6,M,45.9,M,1.6,0000*49
$GNGLL,5227.28502,N,00501.98715,E,173524.55,A,D*7D
$GNRMC,173524.60,A,5227.28502,N,00501.98715,E,0.100,,290925,,,F,V*1E
$GNVTG,,T,,M,0.100,N,0.185,K,D*35
$GNGGA,173524.60,5227.28502,N,00501.98715,E,5,12,3.68,-4.6,M,45.9,M,1.6,0000*4F
$GNGLL,5227.28502,N,00501.98715,E,173524.60,A,D*7B
$GNRMC,173524.65,A,5227.28502,N,00501.98717,E,0.253,,290925,,,F,V*1C
$GNVTG,,T,,M,0.253,N,0.468,K,D*36
$GNGGA,173524.65,5227.28502,N,00501.98717,E,5,12,3.68,-4.6,M,45.9,M,1.7,0000*49
$GNGLL,5227.28502,N,00501.98717,E,173524.65,A,D*7C
$GNRMC,173524.70,A,5227.28502,N,00501.98718,E,0.319,,290925,,,F,V*18
$GNVTG,,T,,M,0.319,N,0.592,K,D*3D
$GNGGA,173524.70,5227.28502,N,00501.98718,E,5,12,3.68,-4.6,M,45.9,M,1.7,0000*42
$GNGLL,5227.28502,N,00501.98718,E,173524.70,A,D*77
$GNRMC,173524.75,A,5227.28502,N,00501.98718,E,0.222,,290925,,,F,V*14
$GNVTG,,T,,M,0.222,N,0.411,K,D*3E
$GNGGA,173524.75,5227.28502,N,00501.98718,E,5,12,2.49,-4.6,M,45.9,M,1.8,0000*4A
$GNGLL,5227.28502,N,00501.98718,E,173524.75,A,D*72
$GNRMC,173524.80,A,5227.28502,N,00501.98718,E,0.065,,290925,,,F,V*1F
$GNVTG,,T,,M,0.065,N,0.120,K,D*38
$GNGGA,173524.80,5227.28502,N,00501.98718,E,5,12,2.49,-4.6,M,45.9,M,1.8,0000*40
$GNGLL,5227.28502,N,00501.98718,E,173524.80,A,D*78
$GNRMC,173524.85,A,5227.28502,N,00501.98718,E,0.064,,290925,,,F,V*1B
$GNVTG,,T,,M,0.064,N,0.119,K,D*33
$GNGGA,173524.85,5227.28502,N,00501.98718,E,5,12,2.49,-4.6,M,45.9,M,1.9,0000*44
$GNGLL,5227.28502,N,00501.98718,E,173524.85,A,D*7D
$GNRMC,173524.90,A,5227.28502,N,00501.98719,E,0.172,,290925,,,F,V*18
$GNVTG,,T,,M,0.172,N,0.318,K,D*36
$GNGGA,173524.90,5227.28502,N,00501.98719,E,5,12,2.49,-4.6,M,45.9,M,1.9,0000*41
$GNGLL,5227.28502,N,00501.98719,E,173524.90,A,D*78
$GNRMC,173524.95,A,5227.28502,N,00501.98719,E,0.124,,290925,,,F,V*1E
$GNVTG,,T,,M,0.124,N,0.229,K,D*36
$GNGGA,173524.95,5227.28502,N,00501.98719,E,5,12,2.49,-4.6,M,45.9,M,2.0,0000*4E
$GNGLL,5227.28502,N,00501.98719,E,173524.95,A,D*7D
$GNRMC,173525.05,A,5227.28502,N,00501.98719,E,0.150,,290925,,,F,V*15
$GNVTG,,T,,M,0.150,N,0.278,K,D*31
$GNGGA,173525.05,5227.28502,N,00501.98719,E,5,12,2.49,-4.6,M,45.9,M,2.1,0000*47
$GNGLL,5227.28502,N,00501.98719,E,173525.05,A,D*75
$GNRMC,173525.10,A,5227.28502,N,00501.98720,E,0.030,,290925,,,F,V*1C
$GNVTG,,T,,M,0.030,N,0.055,K,D*3B
$GNGGA,173525.10,5227.28502,N,00501.98720,E,5,12,2.49,-4.6,M,45.9,M,2.1,0000*49
$GNGLL,5227.28502,N,00501.98720,E,173525.10,A,D*7B
$GNRMC,173525.15,A,5227.28502,N,00501.98721,E,0.260,,290925,,,F,V*1F
$GNVTG,,T,,M,0.260,N,0.482,K,D*32
$GNGGA,173525.15,5227.28502,N,00501.98721,E,5,12,2.49,-4.6,M,45.9,M,2.2,0000*4E
$GNGLL,5227.28502,N,00501.98721,E,173525.15,A,D*7F
$GNRMC,173525.20,A,5227.28502,N,00501.98721,E,0.228,,290925,,,F,V*15
$GNVTG,,T,,M,0.228,N,0.423,K,D*35
$GNGGA,173525.20,5227.28502,N,00501.98721,E,5,12,2.49,-4.6,M,45.9,M,1.2,0000*4B
$GNGLL,5227.28502,N,00501.98721,E,173525.20,A,D*79
$GNRMC,173525.30,A,5227.28502,N,00501.98722,E,0.268,,290925,,,F,V*13
$GNVTG,,T,,M,0.268,N,0.497,K,D*3E
$GNGGA,173525.30,5227.28502,N,00501.98722,E,5,12,2.49,-4.6,M,45.9,M,1.3,0000*48
$GNGLL,5227.28502,N,00501.98722,E,173525.30,A,D*7B
$GNRMC,173525.35,A,5227.28502,N,00501.98722,E,0.295,,290925,,,F,V*14
$GNVTG,,T,,M,0.295,N,0.547,K,D*30
$GNGGA,173525.35,5227.28502,N,00501.98722,E,5,12,2.49,-4.6,M,45.9,M,1.4,0000*4A
$GNGLL,5227.28502,N,00501.98722,E,173525.35,A,D*7E
$GNRMC,173525.40,A,5227.28502,N,00501.98723,E,0.156,,290925,,,F,V*1B
$GNVTG,,T,,M,0.156,N,0.289,K,D*39
$GNGGA,173525.40,5227.28502,N,00501.98723,E,5,12,2.49,-4.7,M,45.9,M,1.4,0000*48
$GNGLL,5227.28502,N,00501.98723,E,173525.40,A,D*7D
$GNRMC,173525.45,A,5227.28502,N,00501.98724,E,0.211,,290925,,,F,V*19
$GNVTG,,T,,M,0.211,N,0.391,K,D*31
$GNGGA,173525.45,5227.28502,N,00501.98724,E,5,12,2.49,-4.7,M,45.9,M,1.5,0000*4B
$GNGLL,5227.28502,N,00501.98724,E,173525.45,A,D*7F
$GNRMC,173525.50,A,5227.28502,N,00501.98723,E,0.079,,290925,,,F,V*16
$GNVTG,,T,,M,0.079,N,0.146,K,D*35
$GNGGA,173525.50,5227.28502,N,00501.98723,E,5,12,2.49,-4.7,M,45.9,M,1.5,0000*48
$GNGLL,5227.28502,N,00501.98723,E,173525.50,A,D*7C
$GNRMC,173525.55,A,5227.28502,N,00501.98723,E,0.220,,290925,,,F,V*1D
$GNVTG,,T,,M,0.220,N,0.408,K,D*34
$GNGGA,173525.55,5227.28502,N,00501.98723,E,5,12,2.49,-4.7,M,45.9,M,1.6,0000*4E
$GNGLL,5227.28502,N,00501.98723,E,173525.55,A,D*79
$GNRMC,173525.60,A,5227.28502,N,00501.98724,E,0.083,,290925,,,F,V*17
$GNVTG,,T,,M,0.083,N,0.154,K,D*33
$GNGGA,173525.60,5227.28502,N,00501.98724,E,5,12,2.49,-4.7,M,45.9,M,1.6,0000*4F
$GNGLL,5227.28502,N,00501.98724,E,173525.60,A,D*78
$GNRMC,173525.65,A,5227.28503,N,00501.98724,E,0.104,,290925,,,F,V*1D
$GNVTG,,T,,M,0.104,N,0.192,K,D*37
$GNGGA,173525.65,5227.28503,N,00501.98724,E,5,12,3.82,-4.7,M,45.9,M,1.7,0000*4C
$GNGLL,5227.28503,N,00501.98724,E,173525.65,A,D*7C
$GNRMC,173525.70,A,5227.28503,N,00501.98725,E,0.090,,290925,,,F,V*14
$GNVTG,,T,,M,0.090,N,0.167,K,D*31
$GNGGA,173525.70,5227.28503,N,00501.98725,E,5,12,3.82,-4.7,M,45.9,M,1.7,0000*49
$GNGLL,5227.28503,N,00501.98725,E,173525.70,A,D*79
$GNRMC,173525.75,A,5227.28504,N,00501.98726,E,0.274,,290925,,,F,V*1D
$GNVTG,,T,,M,0.274,N,0.508,K,D*34
$GNGGA,173525.75,5227.28504,N,00501.98726,E,5,12,4.92,-4.6,M,45.9,M,1.8,0000*40
$GNGLL,5227.28504,N,00501.98726,E,173525.75,A,D*78
$GNRMC,173525.80,A,5227.28505,N,00501.98728,E,0.382,,290925,,,F,V*10
$GNVTG,,T,,M,0.382,N,0.707,K,D*31
$GNGGA,173525.80,5227.28505,N,00501.98728,E,5,12,7.71,-4.6,M,45.9,M,1.8,0000*4B
$GNGLL,5227.28505,N,00501.98728,E,173525.80,A,D*7D
$GNRMC,173525.85,A,5227.28505,N,00501.98730,E,0.298,,290925,,,F,V*16
$GNVTG,,T,,M,0.298,N,0.551,K,D*3A
$GNGGA,173525.85,5227.28505,N,00501.98730,E,5,12,7.71,-4.6,M,45.9,M,1.9,0000*46
$GNGLL,5227.28505,N,00501.98730,E,173525.85,A,D*71
$GNRMC,173525.90,A,5227.28505,N,00501.98730,E,0.368,,290925,,,F,V*1C
$GNVTG,,T,,M,0.368,N,0.681,K,D*3A
$GNGGA,173525.90,5227.28505,N,00501.98730,E,5,12,7.71,-4.6,M,45.9,M,1.9,0000*42
$GNGLL,5227.28505,N,00501.98730,E,173525.90,A,D*75
$GNRMC,173525.95,A,5227.28505,N,00501.98730,E,0.287,,290925,,,F,V*19
$GNVTG,,T,,M,0.287,N,0.531,K,D*32
$GNGGA,173525.95,5227.28505,N,00501.98730,E,5,12,7.71,-4.6,M,45.9,M,2.0,0000*4D
$GNGLL,5227.28505,N,00501.98730,E,173525.95,A,D*70
$GNRMC,173526.00,A,5227.28506,N,00501.98732,E,0.456,,290925,,,F,V*1D
$GNVTG,,T,,M,0.456,N,0.845,K,D*36
$GNGGA,173526.00,5227.28506,N,00501.98732,E,5,12,4.95,-4.6,M,45.9,M,2.0,0000*4A
$GNGLL,5227.28506,N,00501.98732,E,173526.00,A,D*7E
$GNRMC,173526.05,A,5227.28506,N,00501.98733,E,0.599,80.95,290925,,,F,V*31
$GNVTG,80.95,T,,M,0.599,N,1.108,K,D*1F
$GNGGA,173526.05,5227.28506,N,00501.98733,E,5,12,4.34,-4.6,M,45.9,M,2.1,0000*44
$GNGLL,5227.28506,N,00501.98733,E,173526.05,A,D*7A
$GNRMC,173526.10,A,5227.28506,N,00501.98735,E,0.668,79.75,290925,,,F,V*36
$GNVTG,79.75,T,,M,0.668,N,1.237,K,D*15
$GNGGA,173526.10,5227.28506,N,00501.98735,E,5,12,3.68,-4.6,M,45.9,M,2.1,0000*48
$GNGLL,5227.28506,N,00501.98735,E,173526.10,A,D*78
$GNRMC,173526.15,A,5227.28507,N,00501.98736,E,0.550,74.83,290925,,,F,V*3D
$GNVTG,74.83,T,,M,0.550,N,1.019,K,D*17
$GNGGA,173526.15,5227.28507,N,00501.98736,E,5,12,3.82,-4.6,M,45.9,M,2.2,0000*48
$GNGLL,5227.28507,N,00501.98736,E,173526.15,A,D*7F
$GNRMC,173526.20,A,5227.28508,N,00501.98735,E,0.486,59.21,290925,,,F,V*3A
$GNVTG,59.21,T,,M,0.486,N,0.900,K,D*1A
$GNGGA,173526.20,5227.28508,N,00501.98735,E,5,12,3.68,-4.6,M,45.9,M,1.2,0000*45
$GNGLL,5227.28508,N,00501.98735,E,173526.20,A,D*75
$GNRMC,173526.30,A,5227.28509,N,00501.98735,E,0.379,,290925,,,F,V*1C
$GNVTG,,T,,M,0.379,N,0.702,K,D*30
$GNGGA,173526.30,5227.28509,N,00501.98735,E,5,12,4.01,-4.6,M,45.9,M,1.3,0000*4C
$GNGLL,5227.28509,N,00501.98735,E,173526.30,A,D*75
$GNRMC,173526.35,A,5227.28509,N,00501.98737,E,0.539,65.34,290925,,,F,V*33
$GNVTG,65.34,T,,M,0.539,N,0.997,K,D*1A
$GNGGA,173526.35,5227.28509,N,00501.98737,E,5,12,4.01,-4.6,M,45.9,M,1.4,0000*4C
$GNGLL,5227.28509,N,00501.98737,E,173526.35,A,D*72
$GNRMC,173526.40,A,5227.28510,N,00501.98739,E,0.774,64.33,290925,,,F,V*3A
$GNVTG,64.33,T,,M,0.774,N,1.434,K,D*12
$GNGGA,173526.40,5227.28510,N,00501.98739,E,5,12,4.01,-4.6,M,45.9,M,1.4,0000*48
$GNGLL,5227.28510,N,00501.98739,E,173526.40,A,D*76
$GNRMC,173526.45,A,5227.28512,N,00501.98740,E,0.971,51.80,290925,,,F,V*36
$GNVTG,51.80,T,,M,0.971,N,1.799,K,D*13
$GNGGA,173526.45,5227.28512,N,00501.98740,E,5,12,4.05,-4.6,M,45.9,M,1.5,0000*44
$GNGLL,5227.28512,N,00501.98740,E,173526.45,A,D*7F
$GNRMC,173526.50,A,5227.28513,N,00501.98741,E,1.001,47.87,290925,,,F,V*3D
$GNVTG,47.87,T,,M,1.001,N,1.853,K,D*15
$GNGGA,173526.50,5227.28513,N,00501.98741,E,5,12,4.05,-4.6,M,45.9,M,1.5,0000*40
$GNGLL,5227.28513,N,00501.98741,E,173526.50,A,D*7B
$GNRMC,173526.55,A,5227.28512,N,00501.98742,E,0.729,52.34,290925,,,F,V*3A
$GNVTG,52.34,T,,M,0.729,N,1.350,K,D*1D
$GNGGA,173526.55,5227.28512,N,00501.98742,E,5,12,4.05,-4.6,M,45.9,M,1.6,0000*44
$GNGLL,5227.28512,N,00501.98742,E,173526.55,A,D*7C
$GNRMC,173526.60,A,5227.28512,N,00501.98742,E,0.433,,290925,,,F,V*1A
$GNVTG,,T,,M,0.433,N,0.802,K,D*36
$GNGGA,173526.60,5227.28512,N,00501.98742,E,5,12,4.05,-4.6,M,45.9,M,1.6,0000*42
$GNGLL,5227.28512,N,00501.98742,E,173526.60,A,D*7A
$GNRMC,173526.65,A,5227.28512,N,00501.98743,E,0.336,,290925,,,F,V*1C
$GNVTG,,T,,M,0.336,N,0.623,K,D*39
$GNGGA,173526.65,5227.28512,N,00501.98743,E,5,12,4.05,-4.6,M,45.9,M,1.7,0000*47
$GNGLL,5227.28512,N,00501.98743,E,173526.65,A,D*7E
$GNRMC,173526.70,A,5227.28513,N,00501.98744,E,0.333,,290925,,,F,V*1B
$GNVTG,,T,,M,0.333,N,0.617,K,D*3B
$GNGGA,173526.70,5227.28513,N,00501.98744,E,5,12,4.05,-4.6,M,45.9,M,1.7,0000*45
$GNGLL,5227.28513,N,00501.98744,E,173526.70,A,D*7C
$GNRMC,173526.75,A,5227.28513,N,00501.98744,E,0.306,,290925,,,F,V*18
$GNVTG,,T,,M,0.306,N,0.567,K,D*39
$GNGGA,173526.75,5227.28513,N,00501.98744,E,5,12,2.57,-4.7,M,45.9,M,1.8,0000*4F
$GNGLL,5227.28513,N,00501.98744,E,173526.75,A,D*79
$GNRMC,173526.80,A,5227.28513,N,00501.98745,E,0.262,,290925,,,F,V*10
$GNVTG,,T,,M,0.262,N,0.485,K,D*37
$GNGGA,173526.80,5227.28513,N,00501.98745,E,5,12,2.57,-4.7,M,45.9,M,1.8,0000*44
$GNGLL,5227.28513,N,00501.98745,E,173526.80,A,D*72
$GNRMC,173526.85,A,5227.28513,N,00501.98745,E,0.157,,290925,,,F,V*10
$GNVTG,,T,,M,0.157,N,0.291,K,D*31
$GNGGA,173526.85,5227.28513,N,00501.98745,E,5,12,2.57,-4.7,M,45.9,M,1.9,0000*40
$GNGLL,5227.28513,N,00501.98745,E,173526.85,A,D*77
$GNRMC,173526.90,A,5227.28513,N,00501.98745,E,0.110,,290925,,,F,V*17
$GNVTG,,T,,M,0.110,N,0.203,K,D*39
$GNGGA,173526.90,5227.28513,N,00501.98745,E,5,12,2.57,-4.7,M,45.9,M,1.9,0000*44
$GNGLL,5227.28513,N,00501.98745,E,173526.90,A,D*73
$GNRMC,173526.95,A,5227.28513,N,00501.98746,E,0.131,,290925,,,F,V*12
$GNVTG,,T,,M,0.131,N,0.242,K,D*3F
$GNGGA,173526.95,5227.28513,N,00501.98746,E,5,12,2.57,-4.7,M,45.9,M,2.0,0000*48
$GNGLL,5227.28513,N,00501.98746,E,173526.95,A,D*75
$GNRMC,173527.05,A,5227.28514,N,00501.98747,E,0.165,,290925,,,F,V*1D
$GNVTG,,T,,M,0.165,N,0.306,K,D*3F
$GNGGA,173527.05,5227.28514,N,00501.98747,E,5,12,2.55,-4.7,M,45.9,M,2.1,0000*45
$GNGLL,5227.28514,N,00501.98747,E,173527.05,A,D*7B
$GNRMC,173527.10,A,5227.28513,N,00501.98747,E,0.042,,290925,,,F,V*1A
$GNVTG,,T,,M,0.042,N,0.078,K,D*31
$GNGGA,173527.10,5227.28513,N,00501.98747,E,5,12,2.55,-4.7,M,45.9,M,2.1,0000*46
$GNGLL,5227.28513,N,00501.98747,E,173527.10,A,D*78
$GNRMC,173527.15,A,5227.28513,N,00501.98746,E,0.141,,290925,,,F,V*1C
$GNVTG,,T,,M,0.141,N,0.261,K,D*39
$GNGGA,173527.15,5227.28513,N,00501.98746,E,5,12,2.55,-4.7,M,45.9,M,2.2,0000*41
$GNGLL,5227.28513,N,00501.98746,E,173527.15,A,D*7C
$GNRMC,173527.20,A,5227.28513,N,00501.98746,E,0.143,,290925,,,F,V*18
$GNVTG,,T,,M,0.143,N,0.264,K,D*3E
$GNGGA,173527.20,5227.28513,N,00501.98746,E,5,12,2.55,-4.7,M,45.9,M,2.2,0000*47
$GNGLL,5227.28513,N,00501.98746,E,173527.20,A,D*7A
$GNRMC,173527.25,A,5227.28513,N,00501.98745,E,0.178,,290925,,,F,V*16
$GNVTG,,T,,M,0.178,N,0.330,K,D*36
$GNGGA,173527.25,5227.28513,N,00501.98745,E,5,12,2.55,-4.7,M,45.9,M,2.3,0000*40
$GNGLL,5227.28513,N,00501.98745,E,173527.25,A,D*7C
$GNRMC,173527.30,A,5227.28513,N,00501.98746,E,0.121,,290925,,,F,V*1D
$GNVTG,,T,,M,0.121,N,0.223,K,D*39
$GNGGA,173527.30,5227.28513,N,00501.98746,E,5,12,2.57,-4.8,M,45.9,M,2.3,0000*4A
$GNGLL,5227.28513,N,00501.98746,E,173527.30,A,D*7B
$GNRMC,173527.35,A,5227.28513,N,00501.98746,E,0.164,,290925,,,F,V*19
$GNVTG,,T,,M,0.164,N,0.304,K,D*3C
$GNGGA,173527.35,5227.28513,N,00501.98746,E,5,12,2.55,-4.8,M,45.9,M,2.4,0000*4A
$GNGLL,5227.28513,N,00501.98746,E,173527.35,A,D*7E
$GNRMC,173527.40,A,5227.28513,N,00501.98745,E,0.220,,290925,,,F,V*1B
$GNVTG,,T,,M,0.220,N,0.407,K,D*3B
$GNGGA,173527.40,5227.28513,N,00501.98745,E,5,12,2.55,-4.8,M,45.9,M,2.4,0000*4B
$GNGLL,5227.28513,N,00501.98745,E,173527.40,A,D*7F
$GNRMC,173527.45,A,5227.28513,N,00501.98744,E,0.224,,290925,,,F,V*1B
$GNVTG,,T,,M,0.224,N,0.415,K,D*3C
$GNGGA,173527.45,5227.28513,N,00501.98744,E,5,12,2.55,-4.8,M,45.9,M,1.5,0000*4D
$GNGLL,5227.28513,N,00501.98744,E,173527.45,A,D*7B
$GNRMC,173527.55,A,5227.28513,N,00501.98746,E,0.256,,290925,,,F,V*1D
$GNVTG,,T,,M,0.256,N,0.475,K,D*3F
$GNGGA,173527.55,5227.28513,N,00501.98746,E,5,12,2.55,-4.8,M,45.9,M,0.6,0000*4C
$GNGLL,5227.28513,N,00501.98746,E,173527.55,A,D*78
$GNRMC,173527.60,A,5227.28513,N,00501.98748,E,0.163,,290925,,,F,V*10
$GNVTG,,T,,M,0.163,N,0.301,K,D*3E
$GNGGA,173527.60,5227.28513,N,00501.98748,E,5,12,2.49,-4.8,M,45.9,M,0.6,0000*49
$GNGLL,5227.28513,N,00501.98748,E,173527.60,A,D*70
$GNRMC,173527.65,A,5227.28513,N,00501.98748,E,0.077,,290925,,,F,V*11
$GNVTG,,T,,M,0.077,N,0.142,K,D*3F
$GNGGA,173527.65,5227.28513,N,00501.98748,E,5,12,2.49,-4.8,M,45.9,M,0.7,0000*4D
$GNGLL,5227.28513,N,00501.98748,E,173527.65,A,D*75
$GNRMC,173527.70,A,5227.28513,N,00501.98748,E,0.064,,290925,,,F,V*17
$GNVTG,,T,,M,0.064,N,0.118,K,D*32
$GNGGA,173527.70,5227.28513,N,00501.98748,E,5,12,2.49,-4.8,M,45.9,M,0.7,0000*49
$GNGLL,5227.28513,N,00501.98748,E,173527.70,A,D*71
$GNRMC,173527.75,A,5227.28513,N,00501.98748,E,0.136,,290925,,,F,V*14
$GNVTG,,T,,M,0.136,N,0.251,K,D*3A
$GNGGA,173527.75,5227.28513,N,00501.98748,E,5,12,2.49,-4.8,M,45.9,M,0.8,0000*43
$GNGLL,5227.28513,N,00501.98748,E,173527.75,A,D*74
$GNRMC,173527.80,A,5227.28513,N,00501.98748,E,0.153,,290925,,,F,V*1D
$GNVTG,,T,,M,0.153,N,0.284,K,D*31
$GNGGA,173527.80,5227.28513,N,00501.98748,E,5,12,2.49,-4.8,M,45.9,M,0.8,0000*49
$GNGLL,5227.28513,N,00501.98748,E,173527.80,A,D*7E
$GNRMC,173527.85,A,5227.28513,N,00501.98749,E,0.062,,290925,,,F,V*1A
$GNVTG,,T,,M,0.062,N,0.114,K,D*38
$GNGGA,173527.85,5227.28513,N,00501.98749,E,5,12,2.49,-4.8,M,45.9,M,0.9,0000*4C
$GNGLL,5227.28513,N,00501.98749,E,173527.85,A,D*7A
$GNRMC,173527.90,A,5227.28513,N,00501.98749,E,0.054,,290925,,,F,V*1B
$GNVTG,,T,,M,0.054,N,0.101,K,D*39
$GNGGA,173527.90,5227.28513,N,00501.98749,E,5,12,2.49,-4.8,M,45.9,M,0.9,0000*48
$GNGLL,5227.28513,N,00501.98749,E,173527.90,A,D*7E
$GNRMC,173527.95,A,5227.28513,N,00501.98748,E,0.051,,290925,,,F,V*1A
$GNVTG,,T,,M,0.051,N,0.094,K,D*31
$GNGGA,173527.95,5227.28513,N,00501.98748,E,5,12,2.49,-4.8,M,45.9,M,1.0,0000*44
$GNGLL,5227.28513,N,00501.98748,E,173527.95,A,D*7A
$GNRMC,173528.00,A,5227.28513,N,00501.98750,E,0.082,,290925,,,F,V*1E
$GNVTG,,T,,M,0.082,N,0.151,K,D*37
$GNGGA,173528.00,5227.28513,N,00501.98750,E,5,12,2.49,-4.8,M,45.9,M,1.0,0000*4E
$GNGLL,5227.28513,N,00501.98750,E,173528.00,A,D*70
$GNRMC,173528.05,A,5227.28513,N,00501.98750,E,0.131,,290925,,,F,V*12
$GNVTG,,T,,M,0.131,N,0.242,K,D*3F
$GNGGA,173528.05,5227.28513,N,00501.98750,E,5,12,2.49,-4.8,M,45.9,M,1.1,0000*4A
$GNGLL,5227.28513,N,00501.98750,E,173528.05,A,D*75
$GNRMC,173528.10,A,5227.28513,N,00501.98750,E,0.104,,290925,,,F,V*10
$GNVTG,,T,,M,0.104,N,0.192,K,D*37
$GNGGA,173528.10,5227.28513,N,00501.98750,E,5,12,2.49,-4.8,M,45.9,M,1.1,0000*4E
$GNGLL,5227.28513,N,00501.98750,E,173528.10,A,D*71
$GNRMC,173528.15,A,5227.28513,N,00501.98750,E,0.109,,290925,,,F,V*18
$GNVTG,,T,,M,0.109,N,0.202,K,D*30
$GNGGA,173528.15,5227.28513,N,00501.98750,E,5,12,2.49,-4.8,M,45.9,M,1.2,0000*48
$GNGLL,5227.28513,N,00501.98750,E,173528.15,A,D*74
$GNRMC,173528.20,A,5227.28513,N,00501.98749,E,0.117,,290925,,,F,V*19
$GNVTG,,T,,M,0.117,N,0.216,K,D*3A
$GNGGA,173528.20,5227.28513,N,00501.98749,E,5,12,2.49,-4.8,M,45.9,M,1.2,0000*46
$GNGLL,5227.28513,N,00501.98749,E,173528.20,A,D*7A
$GNRMC,173528.25,A,5227.28513,N,00501.98749,E,0.040,,290925,,,F,V*1F
$GNVTG,,T,,M,0.040,N,0.075,K,D*3E
$GNGGA,173528.25,5227.28513,N,00501.98749,E,5,12,2.49,-4.8,M,45.9,M,1.3,0000*42
$GNGLL,5227.28513,N,00501.98749,E,173528.25,A,D*7F
$GNRMC,173528.30,A,5227.28513,N,00501.98750,E,0.092,,290925,,,F,V*1C
$GNVTG,,T,,M,0.092,N,0.170,K,D*35
$GNGGA,173528.30,5227.28513,N,00501.98750,E,5,12,2.49,-4.8,M,45.9,M,1.3,0000*4E
$GNGLL,5227.28513,N,00501.98750,E,173528.30,A,D*73
$GNRMC,173528.35,A,5227.28513,N,00501.98748,E,0.131,,290925,,,F,V*18
$GNVTG,,T,,M,0.131,N,0.242,K,D*3F
$GNGGA,173528.35,5227.28513,N,00501.98748,E,5,12,2.49,-4.8,M,45.9,M,1.4,0000*45
$GNGLL,5227.28513,N,00501.98748,E,173528.35,A,D*7F
$GNRMC,173528.40,A,5227.28513,N,00501.98747,E,0.239,,290925,,,F,V*1E
$GNVTG,,T,,M,0.239,N,0.443,K,D*33
$GNGGA,173528.40,5227.28513,N,00501.98747,E,5,12,3.68,-4.8,M,45.9,M,1.4,0000*4A
$GNGLL,5227.28513,N,00501.98747,E,173528.40,A,D*72
$GNRMC,173528.45,A,5227.28513,N,00501.98747,E,0.193,,290925,,,F,V*18
$GNVTG,,T,,M,0.193,N,0.357,K,D*32
$GNGGA,173528.45,5227.28513,N,00501.98747,E,5,12,3.68,-4.8,M,45.9,M,1.5,0000*4E
$GNGLL,5227.28513,N,00501.98747,E,173528.45,A,D*77
$GNRMC,173528.50,A,5227.28513,N,00501.98747,E,0.059,,290925,,,F,V*1B
$GNVTG,,T,,M,0.059,N,0.110,K,D*34
$GNGGA,173528.50,5227.28513,N,00501.98747,E,5,12,3.68,-4.8,M,45.9,M,1.5,0000*4A
$GNGLL,5227.28513,N,00501.98747,E,173528.50,A,D*73
$GNRMC,173528.55,A,5227.28513,N,00501.98747,E,0.210,,290925,,,F,V*11
$GNVTG,,T,,M,0.210,N,0.389,K,D*39
$GNGGA,173528.55,5227.28513,N,00501.98747,E,5,12,3.68,-4.8,M,45.9,M,1.6,0000*4C
$GNGLL,5227.28513,N,00501.98747,E,173528.55,A,D*76
$GNRMC,173528.60,A,5227.28513,N,00501.98744,E,0.650,287.68,290925,,,F,V*09
$GNVTG,287.68,T,,M,0.650,N,1.203,K,D*26
$GNGGA,173528.60,5227.28513,N,00501.98744,E,5,12,3.68,-4.8,M,45.9,M,1.6,0000*49
$GNGLL,5227.28513,N,00501.98744,E,173528.60,A,D*73
$GNRMC,173528.65,A,5227.28513,N,00501.98741,E,0.849,282.87,290925,,,F,V*0B
$GNVTG,282.87,T,,M,0.849,N,1.572,K,D*25
$GNGGA,173528.65,5227.28513,N,00501.98741,E,5,12,3.68,-4.8,M,45.9,M,1.7,0000*48
$GNGLL,5227.28513,N,00501.98741,E,173528.65,A,D*73
$GNRMC,173528.70,A,5227.28513,N,00501.98741,E,0.584,287.92,290925,,,F,V*02
$GNVTG,287.92,T,,M,0.584,N,1.081,K,D*21
$GNGGA,173528.70,5227.28513,N,00501.98741,E,5,12,3.68,-4.8,M,45.9,M,1.7,0000*4C
$GNGLL,5227.28513,N,00501.98741,E,173528.70,A,D*77
$GNRMC,173528.75,A,5227.28513,N,00501.98742,E,0.241,,290925,,,F,V*12
$GNVTG,,T,,M,0.241,N,0.447,K,D*38
$GNGGA,173528.75,5227.28513,N,00501.98742,E,5,12,2.49,-4.8,M,45.9,M,1.8,0000*47
$GNGLL,5227.28513,N,00501.98742,E,173528.75,A,D*71
$GNRMC,173528.80,A,5227.28513,N,00501.98743,E,0.119,,290925,,,F,V*17
$GNVTG,,T,,M,0.119,N,0.220,K,D*31
$GNGGA,173528.80,5227.28513,N,00501.98743,E,5,12,2.49,-4.8,M,45.9,M,1.8,0000*4C
$GNGLL,5227.28513,N,00501.98743,E,173528.80,A,D*7A
$GNRMC,173528.85,A,5227.28514,N,00501.98740,E,0.394,299.95,290925,,,F,V*01
$GNVTG,299.95,T,,M,0.394,N,0.729,K,D*2A
$GNGGA,173528.85,5227.28514,N,00501.98740,E,5,12,2.49,-4.8,M,45.9,M,1.9,0000*4C
$GNGLL,5227.28514,N,00501.98740,E,173528.85,A,D*7B
$GNRMC,173528.90,A,5227.28514,N,00501.98740,E,0.566,305.20,290925,,,F,V*04
$GNVTG,305.20,T,,M,0.566,N,1.048,K,D*2A
$GNGGA,173528.90,5227.28514,N,00501.98740,E,5,12,2.49,-4.8,M,45.9,M,1.9,0000*48
$GNGLL,5227.28514,N,00501.98740,E,173528.90,A,D*7F
$GNRMC,173528.95,A,5227.28515,N,00501.98736,E,0.899,292.95,290925,,,F,V*0D
$GNVTG,292.95,T,,M,0.899,N,1.664,K,D*2E
$GNGGA,173528.95,5227.28515,N,00501.98736,E,5,12,2.49,-4.8,M,45.9,M,2.0,0000*47
$GNGLL,5227.28515,N,00501.98736,E,173528.95,A,D*7A
$GNRMC,173529.00,A,5227.28515,N,00501.98734,E,0.823,286.65,290925,,,F,V*09
$GNVTG,286.65,T,,M,0.823,N,1.524,K,D*22
$GNGGA,173529.00,5227.28515,N,00501.98734,E,5,12,2.55,-4.8,M,45.9,M,2.0,0000*45
$GNGLL,5227.28515,N,00501.98734,E,173529.00,A,D*75
$GNRMC,173529.05,A,5227.28514,N,00501.98730,E,0.532,296.08,290925,,,F,V*0E
$GNVTG,296.08,T,,M,0.532,N,0.985,K,D*23
$GNGGA,173529.05,5227.28514,N,00501.98730,E,5,12,2.55,-4.8,M,45.9,M,2.1,0000*44
$GNGLL,5227.28514,N,00501.98730,E,173529.05,A,D*75
$GNRMC,173529.10,A,5227.28515,N,00501.98731,E,0.261,,290925,,,F,V*10
$GNVTG,,T,,M,0.261,N,0.484,K,D*35
$GNGGA,173529.10,5227.28515,N,00501.98731,E,5,12,2.55,-4.7,M,45.9,M,2.1,0000*4F
$GNGLL,5227.28515,N,00501.98731,E,173529.10,A,D*71
$GNRMC,173529.15,A,5227.28515,N,00501.98731,E,0.159,,290925,,,F,V*1D
$GNVTG,,T,,M,0.159,N,0.294,K,D*3A
$GNGGA,173529.15,5227.28515,N,00501.98731,E,5,12,2.55,-4.7,M,45.9,M,2.2,0000*49
$GNGLL,5227.28515,N,00501.98731,E,173529.15,A,D*74
$GNRMC,173529.20,A,5227.28515,N,00501.98729,E,0.337,,290925,,,F,V*18
$GNVTG,,T,,M,0.337,N,0.624,K,D*3F
$GNGGA,173529.20,5227.28515,N,00501.98729,E,5,12,2.55,-4.7,M,45.9,M,1.2,0000*45
$GNGLL,5227.28515,N,00501.98729,E,173529.20,A,D*7B
$GNRMC,173529.30,A,5227.28516,N,00501.98732,E,0.464,,290925,,,F,V*11
$GNVTG,,T,,M,0.464,N,0.860,K,D*30
$GNGGA,173529.30,5227.28516,N,00501.98732,E,5,12,2.55,-4.7,M,45.9,M,1.3,0000*4C
$GNGLL,5227.28516,N,00501.98732,E,173529.30,A,D*73
$GNRMC,173529.35,A,5227.28515,N,00501.98731,E,0.581,78.70,290925,,,F,V*38
$GNVTG,78.70,T,,M,0.581,N,1.075,K,D*11
$GNGGA,173529.35,5227.28515,N,00501.98731,E,5,12,2.55,-4.7,M,45.9,M,1.4,0000*4E
$GNGLL,5227.28515,N,00501.98731,E,173529.35,A,D*76
$GNRMC,173529.40,A,5227.28516,N,00501.98726,E,0.408,,290925,,,F,V*19
$GNVTG,,T,,M,0.408,N,0.756,K,D*30
$GNGGA,173529.40,5227.28516,N,00501.98726,E,5,12,2.55,-4.6,M,45.9,M,1.4,0000*48
$GNGLL,5227.28516,N,00501.98726,E,173529.40,A,D*71
$GNRMC,173529.45,A,5227.28517,N,00501.98728,E,0.860,44.62,290925,,,F,V*3B
$GNVTG,44.62,T,,M,0.860,N,1.593,K,D*12
$GNGGA,173529.45,5227.28517,N,00501.98728,E,5,12,2.55,-4.6,M,45.9,M,1.5,0000*43
$GNGLL,5227.28517,N,00501.98728,E,173529.45,A,D*7B
$GNRMC,173529.50,A,5227.28517,N,00501.98728,E,0.629,67.62,290925,,,F,V*3D
$GNVTG,67.62,T,,M,0.629,N,1.165,K,D*1D
$GNGGA,173529.50,5227.28517,N,00501.98728,E,5,12,2.55,-4.5,M,45.9,M,1.5,0000*44
$GNGLL,5227.28517,N,00501.98728,E,173529.50,A,D*7F
$GNRMC,173529.55,A,5227.28516,N,00501.98729,E,0.409,88.84,290925,,,F,V*31
$GNVTG,88.84,T,,M,0.409,N,0.757,K,D*12
$GNGGA,173529.55,5227.28516,N,00501.98729,E,5,12,2.69,-4.5,M,45.9,M,1.6,0000*4D
$GNGLL,5227.28516,N,00501.98729,E,173529.55,A,D*7A
$GNRMC,173529.60,A,5227.28517,N,00501.98729,E,0.288,,290925,,,F,V*1B
$GNVTG,,T,,M,0.288,N,0.534,K,D*38
$GNGGA,173529.60,5227.28517,N,00501.98729,E,5,12,2.69,-4.5,M,45.9,M,1.6,0000*4A
$GNGLL,5227.28517,N,00501.98729,E,173529.60,A,D*7D
$GNRMC,173529.65,A,5227.28518,N,00501.98728,E,0.213,,290925,,,F,V*12
$GNVTG,,T,,M,0.213,N,0.395,K,D*37
$GNGGA,173529.65,5227.28518,N,00501.98728,E,5,12,2.69,-4.5,M,45.9,M,1.7,0000*40
$GNGLL,5227.28518,N,00501.98728,E,173529.65,A,D*76
$GNRMC,173529.70,A,5227.28518,N,00501.98729,E,0.201,,290925,,,F,V*14
$GNVTG,,T,,M,0.201,N,0.372,K,D*3D
$GNGGA,173529.70,5227.28518,N,00501.98729,E,5,12,2.69,-4.5,M,45.9,M,1.7,0000*45
$GNGLL,5227.28518,N,00501.98729,E,173529.70,A,D*73
$GNRMC,173529.75,A,5227.28518,N,00501.98727,E,0.163,,290925,,,F,V*18
$GNVTG,,T,,M,0.163,N,0.303,K,D*3C
$GNGGA,173529.75,5227.28518,N,00501.98727,E,5,12,1.91,-4.5,M,45.9,M,1.8,0000*45
$GNGLL,5227.28518,N,00501.98727,E,173529.75,A,D*78
$GNRMC,173529.80,A,5227.28518,N,00501.98723,E,0.501,261.68,290925,,,F,V*03
$GNVTG,261.68,T,,M,0.501,N,0.927,K,D*25
$GNGGA,173529.80,5227.28518,N,00501.98723,E,5,12,1.75,-4.5,M,45.9,M,1.8,0000*41
$GNGLL,5227.28518,N,00501.98723,E,173529.80,A,D*76
$GNRMC,173529.85,A,5227.28519,N,00501.98721,E,0.573,294.93,290925,,,F,V*0E
$GNVTG,294.93,T,,M,0.573,N,1.061,K,D*24
$GNGGA,173529.85,5227.28519,N,00501.98721,E,5,12,1.91,-4.4,M,45.9,M,1.9,0000*4D
$GNGLL,5227.28519,N,00501.98721,E,173529.85,A,D*70
$GNRMC,173529.90,A,5227.28520,N,00501.98719,E,0.670,301.77,290925,,,F,V*0C
$GNVTG,301.77,T,,M,0.670,N,1.240,K,D*22
$GNGGA,173529.90,5227.28520,N,00501.98719,E,5,12,1.47,-4.4,M,45.9,M,1.9,0000*43
$GNGLL,5227.28520,N,00501.98719,E,173529.90,A,D*75
$GNRMC,173529.95,A,5227.28520,N,00501.98717,E,0.730,271.50,290925,,,F,V*01
$GNVTG,271.50,T,,M,0.730,N,1.352,K,D*26
$GNGGA,173529.95,5227.28520,N,00501.98717,E,5,12,1.27,-4.4,M,45.9,M,2.0,0000*44
$GNGLL,5227.28520,N,00501.98717,E,173529.95,A,D*7E
$GNRMC,173530.05,A,5227.28520,N,00501.98711,E,1.263,267.93,290925,,,F,V*0C
$GNVTG,267.93,T,,M,1.263,N,2.338,K,D*23
$GNGGA,173530.05,5227.28520,N,00501.98711,E,5,12,1.47,-4.4,M,45.9,M,2.1,0000*44
$GNGLL,5227.28520,N,00501.98711,E,173530.05,A,D*79
$GNRMC,173530.15,A,5227.28519,N,00501.98709,E,1.043,256.23,290925,,,F,V*07
$GNVTG,256.23,T,,M,1.043,N,1.931,K,D*2A
$GNGGA,173530.15,5227.28519,N,00501.98709,E,5,12,1.47,-4.4,M,45.9,M,2.2,0000*45
$GNGLL,5227.28519,N,00501.98709,E,173530.15,A,D*7B
$GNRMC,173530.20,A,5227.28518,N,00501.98702,E,1.499,248.88,290925,,,F,V*06
$GNVTG,248.88,T,,M,1.499,N,2.776,K,D*29
$GNGGA,173530.20,5227.28518,N,00501.98702,E,5,12,1.47,-4.4,M,45.9,M,1.2,0000*4A
$GNGLL,5227.28518,N,00501.98702,E,173530.20,A,D*77
$GNRMC,173530.30,A,5227.28517,N,00501.98696,E,1.606,261.99,290925,,,F,V*0B
$GNVTG,261.99,T,,M,1.606,N,2.974,K,D*2A
$GNGGA,173530.30,5227.28517,N,00501.98696,E,5,12,1.47,-4.4,M,45.9,M,1.3,0000*49
$GNGLL,5227.28517,N,00501.98696,E,173530.30,A,D*75
$GNRMC,173530.35,A,5227.28519,N,00501.98697,E,1.265,279.69,290925,,,F,V*06
$GNVTG,279.69,T,,M,1.265,N,2.342,K,D*22
$GNGGA,173530.35,5227.28519,N,00501.98697,E,5,12,1.28,-4.4,M,45.9,M,1.4,0000*4D
$GNGLL,5227.28519,N,00501.98697,E,173530.35,A,D*7F
$GNRMC,173530.45,A,5227.28519,N,00501.98688,E,1.585,270.59,290925,,,F,V*0C
$GNVTG,270.59,T,,M,1.585,N,2.936,K,D*28
$GNGGA,173530.45,5227.28519,N,00501.98688,E,5,12,1.28,-4.4,M,45.9,M,1.5,0000*45
$GNGLL,5227.28519,N,00501.98688,E,173530.45,A,D*76
$GNRMC,173530.50,A,5227.28519,N,00501.98685,E,1.631,265.39,290925,,,F,V*0B
$GNVTG,265.39,T,,M,1.631,N,3.020,K,D*29
$GNGGA,173530.50,5227.28519,N,00501.98685,E,5,12,1.28,-4.4,M,45.9,M,1.5,0000*4C
$GNGLL,5227.28519,N,00501.98685,E,173530.50,A,D*7F
$GNRMC,173530.55,A,5227.28519,N,00501.98682,E,1.545,264.20,290925,,,F,V*00
$GNVTG,264.20,T,,M,1.545,N,2.861,K,D*2C
$GNGGA,173530.55,5227.28519,N,00501.98682,E,5,12,1.47,-4.4,M,45.9,M,1.6,0000*44
$GNGLL,5227.28519,N,00501.98682,E,173530.55,A,D*7D
$GNRMC,173530.60,A,5227.28519,N,00501.98679,E,1.473,258.74,290925,,,F,V*08
$GNVTG,258.74,T,,M,1.473,N,2.728,K,D*24
$GNGGA,173530.60,5227.28519,N,00501.98679,E,5,12,1.47,-4.4,M,45.9,M,1.6,0000*46
$GNGLL,5227.28519,N,00501.98679,E,173530.60,A,D*7F
$GNRMC,173530.65,A,5227.28519,N,00501.98676,E,1.410,261.48,290925,,,F,V*02
$GNVTG,261.48,T,,M,1.410,N,2.612,K,D*2C
$GNGGA,173530.65,5227.28519,N,00501.98676,E,5,12,1.20,-4.4,M,45.9,M,1.7,0000*4C
$GNGLL,5227.28519,N,00501.98676,E,173530.65,A,D*75
$GNRMC,173530.70,A,5227.28519,N,00501.98671,E,1.445,266.88,290925,,,F,V*0A
$GNVTG,266.88,T,,M,1.445,N,2.677,K,D*24
$GNGGA,173530.70,5227.28519,N,00501.98671,E,5,12,1.20,-4.4,M,45.9,M,1.7,0000*4F
$GNGLL,5227.28519,N,00501.98671,E,173530.70,A,D*76
$GNRMC,173530.75,A,5227.28519,N,00501.98666,E,1.645,269.41,290925,,,F,V*01
$GNVTG,269.41,T,,M,1.645,N,3.046,K,D*29
$GNGGA,173530.75,5227.28519,N,00501.98666,E,5,12,1.20,-4.4,M,45.9,M,1.8,0000*43
$GNGLL,5227.28519,N,00501.98666,E,173530.75,A,D*75
$GNRMC,173530.80,A,5227.28518,N,00501.98661,E,1.702,261.39,290925,,,F,V*08
$GNVTG,261.39,T,,M,1.702,N,3.152,K,D*28
$GNGGA,173530.80,5227.28518,N,00501.98661,E,5,12,1.14,-4.4,M,45.9,M,1.8,0000*48
$GNGLL,5227.28518,N,00501.98661,E,173530.80,A,D*79
$GNRMC,173530.85,A,5227.28519,N,00501.98658,E,1.447,266.92,290925,,,F,V*02
$GNVTG,266.92,T,,M,1.447,N,2.681,K,D*24
$GNGGA,173530.85,5227.28519,N,00501.98658,E,5,12,1.14,-4.4,M,45.9,M,1.9,0000*47
$GNGLL,5227.28519,N,00501.98658,E,173530.85,A,D*77
$GNRMC,173530.95,A,5227.28518,N,00501.98649,E,1.676,261.33,290925,,,F,V*0E
$GNVTG,261.33,T,,M,1.676,N,3.104,K,D*23
$GNGGA,173530.95,5227.28518,N,00501.98649,E,5,12,1.14,-4.3,M,45.9,M,2.0,0000*4A
$GNGLL,5227.28518,N,00501.98649,E,173530.95,A,D*77
$GNRMC,173531.05,A,5227.28518,N,00501.98643,E,1.221,272.49,290925,,,F,V*05
$GNVTG,272.49,T,,M,1.221,N,2.261,K,D*2B
$GNGGA,173531.05,5227.28518,N,00501.98643,E,5,12,1.14,-4.3,M,45.9,M,2.1,0000*49
$GNGLL,5227.28518,N,00501.98643,E,173531.05,A,D*75
$GNRMC,173531.15,A,5227.28519,N,00501.98635,E,1.659,277.83,290925,,,F,V*0C
$GNVTG,277.83,T,,M,1.659,N,3.072,K,D*22
$GNGGA,173531.15,5227.28519,N,00501.98635,E,5,12,1.14,-4.3,M,45.9,M,2.2,0000*4B
$GNGLL,5227.28519,N,00501.98635,E,173531.15,A,D*74
$GNRMC,173531.25,A,5227.28518,N,00501.98628,E,1.352,256.93,290925,,,F,V*0E
$GNVTG,256.93,T,,M,1.352,N,2.504,K,D*2B
$GNGGA,173531.25,5227.28518,N,00501.98628,E,5,12,1.14,-4.3,M,45.9,M,1.3,0000*47
$GNGLL,5227.28518,N,00501.98628,E,173531.25,A,D*7A
$GNRMC,173531.35,A,5227.28517,N,00501.98619,E,1.976,266.29,290925,,,F,V*0C
$GNVTG,266.29,T,,M,1.976,N,3.659,K,D*2F
$GNGGA,173531.35,5227.28517,N,00501.98619,E,5,12,1.14,-4.3,M,45.9,M,1.4,0000*4C
$GNGLL,5227.28517,N,00501.98619,E,173531.35,A,D*76
$GNRMC,173531.45,A,5227.28518,N,00501.98611,E,1.738,267.41,290925,,,F,V*07
$GNVTG,267.41,T,,M,1.738,N,3.219,K,D*24
$GNGGA,173531.45,5227.28518,N,00501.98611,E,5,12,1.14,-4.3,M,45.9,M,1.5,0000*4D
$GNGLL,5227.28518,N,00501.98611,E,173531.45,A,D*76
$GNRMC,173531.55,A,5227.28517,N,00501.98601,E,1.946,269.05,290925,,,F,V*01
$GNVTG,269.05,T,,M,1.946,N,3.604,K,D*25
$GNGGA,173531.55,5227.28517,N,00501.98601,E,5,12,1.14,-4.3,M,45.9,M,1.6,0000*41
$GNGLL,5227.28517,N,00501.98601,E,173531.55,A,D*79
$GNRMC,173531.65,A,5227.28518,N,00501.98594,E,1.607,277.74,290925,,,F,V*01
$GNVTG,277.74,T,,M,1.607,N,2.977,K,D*2C
$GNGGA,173531.65,5227.28518,N,00501.98594,E,5,12,1.14,-4.3,M,45.9,M,1.7,0000*43
$GNGLL,5227.28518,N,00501.98594,E,173531.65,A,D*7A
$GNRMC,173531.70,A,5227.28517,N,00501.98589,E,1.789,266.24,290925,,,F,V*04
$GNVTG,266.24,T,,M,1.789,N,3.314,K,D*20
$GNGGA,173531.70,5227.28517,N,00501.98589,E,5,12,1.14,-4.3,M,45.9,M,1.7,0000*44
$GNGLL,5227.28517,N,00501.98589,E,173531.70,A,D*7D
$GNRMC,173531.80,A,5227.28517,N,00501.98581,E,1.901,280.49,290925,,,F,V*0E
$GNVTG,280.49,T,,M,1.901,N,3.520,K,D*2C
$GNGGA,173531.80,5227.28517,N,00501.98581,E,5,12,1.14,-4.3,M,45.9,M,1.8,0000*4C
$GNGLL,5227.28517,N,00501.98581,E,173531.80,A,D*7A
$GNRMC,173531.90,A,5227.28517,N,00501.98573,E,1.744,273.94,290925,,,F,V*01
$GNVTG,273.94,T,,M,1.744,N,3.230,K,D*29
$GNGGA,173531.90,5227.28517,N,00501.98573,E,5,12,1.14,-4.3,M,45.9,M,1.9,0000*41
$GNGLL,5227.28517,N,00501.98573,E,173531.90,A,D*76
$GNRMC,173532.00,A,5227.28518,N,00501.98564,E,2.386,271.91,290925,,,F,V*0C
$GNVTG,271.91,T,,M,2.386,N,4.419,K,D*2D
$GNGGA,173532.00,5227.28518,N,00501.98564,E,5,12,1.14,-4.3,M,45.9,M,2.0,0000*48
$GNGLL,5227.28518,N,00501.98564,E,173532.00,A,D*75
$GNRMC,173532.10,A,5227.28518,N,00501.98556,E,1.715,276.35,290925,,,F,V*08
$GNVTG,276.35,T,,M,1.715,N,3.176,K,D*22
$GNGGA,173532.10,5227.28518,N,00501.98556,E,5,12,1.14,-4.3,M,45.9,M,2.1,0000*49
$GNGLL,5227.28518,N,00501.98556,E,173532.10,A,D*75
$GNRMC,173532.15,A,5227.28518,N,00501.98550,E,1.961,274.56,290925,,,F,V*01
$GNVTG,274.56,T,,M,1.961,N,3.633,K,D*2E
$GNGGA,173532.15,5227.28518,N,00501.98550,E,5,12,1.14,-4.3,M,45.9,M,2.2,0000*49
$GNGLL,5227.28518,N,00501.98550,E,173532.15,A,D*76
$GNRMC,173532.25,A,5227.28519,N,00501.98543,E,1.718,285.33,290925,,,F,V*0C
$GNVTG,285.33,T,,M,1.718,N,3.183,K,D*2F
$GNGGA,173532.25,5227.28519,N,00501.98543,E,5,12,1.14,-4.3,M,45.9,M,1.3,0000*4B
$GNGLL,5227.28519,N,00501.98543,E,173532.25,A,D*76
$GNRMC,173532.35,A,5227.28521,N,00501.98536,E,1.798,287.08,290925,,,F,V*06
$GNVTG,287.08,T,,M,1.798,N,3.330,K,D*27
$GNGGA,173532.35,5227.28521,N,00501.98536,E,5,12,1.21,-4.3,M,45.9,M,1.4,0000*42
$GNGLL,5227.28521,N,00501.98536,E,173532.35,A,D*7E
$GNRMC,173532.45,A,5227.28523,N,00501.98528,E,1.893,293.08,290925,,,F,V*0D
$GNVTG,293.08,T,,M,1.893,N,3.506,K,D*25
$GNGGA,173532.45,5227.28523,N,00501.98528,E,5,12,1.42,-4.3,M,45.9,M,1.5,0000*4C
$GNGLL,5227.28523,N,00501.98528,E,173532.45,A,D*74
$GNRMC,173532.50,A,5227.28524,N,00501.98524,E,2.062,299.39,290925,,,F,V*0F
$GNVTG,299.39,T,,M,2.062,N,3.819,K,D*2B
$GNGGA,173532.50,5227.28524,N,00501.98524,E,5,12,1.23,-4.3,M,45.9,M,1.5,0000*44
$GNGLL,5227.28524,N,00501.98524,E,173532.50,A,D*7B
$GNRMC,173532.55,A,5227.28525,N,00501.98521,E,1.858,296.75,290925,,,F,V*0B
$GNVTG,296.75,T,,M,1.858,N,3.441,K,D*2F
$GNGGA,173532.55,5227.28525,N,00501.98521,E,5,12,1.23,-4.3,M,45.9,M,1.6,0000*46
$GNGLL,5227.28525,N,00501.98521,E,173532.55,A,D*7A
$GNRMC,173532.60,A,5227.28526,N,00501.98518,E,1.969,292.19,290925,,,F,V*09
$GNVTG,292.19,T,,M,1.969,N,3.647,K,D*26
$GNGGA,173532.60,5227.28526,N,00501.98518,E,5,12,1.23,-4.4,M,45.9,M,1.6,0000*4E
$GNGLL,5227.28526,N,00501.98518,E,173532.60,A,D*75
$GNRMC,173532.65,A,5227.28527,N,00501.98512,E,2.214,288.25,290925,,,F,V*01
$GNVTG,288.25,T,,M,2.214,N,4.101,K,D*22
$GNGGA,173532.65,5227.28527,N,00501.98512,E,5,12,1.23,-4.4,M,45.9,M,1.7,0000*41
$GNGLL,5227.28527,N,00501.98512,E,173532.65,A,D*7B
$GNRMC,173532.75,A,5227.28529,N,00501.98503,E,2.231,294.28,290925,,,F,V*09
$GNVTG,294.28,T,,M,2.231,N,4.131,K,D*26
$GNGGA,173532.75,5227.28529,N,00501.98503,E,5,12,1.14,-4.4,M,45.9,M,1.8,0000*45
$GNGLL,5227.28529,N,00501.98503,E,173532.75,A,D*74
$GNRMC,173532.85,A,5227.28532,N,00501.98496,E,1.990,306.37,290925,,,F,V*06
$GNVTG,306.37,T,,M,1.990,N,3.685,K,D*2E
$GNGGA,173532.85,5227.28532,N,00501.98496,E,5,12,1.14,-4.4,M,45.9,M,1.9,0000*4C
$GNGLL,5227.28532,N,00501.98496,E,173532.85,A,D*7C
$GNRMC,173532.90,A,5227.28534,N,00501.98493,E,1.926,306.21,290925,,,F,V*0B
$GNVTG,306.21,T,,M,1.926,N,3.567,K,D*2B
$GNGGA,173532.90,5227.28534,N,00501.98493,E,5,12,1.23,-4.4,M,45.9,M,1.9,0000*4F
$GNGLL,5227.28534,N,00501.98493,E,173532.90,A,D*7B
$GNRMC,173532.95,A,5227.28535,N,00501.98491,E,1.817,310.80,290925,,,F,V*02
$GNVTG,310.80,T,,M,1.817,N,3.365,K,D*20
$GNGGA,173532.95,5227.28535,N,00501.98491,E,5,12,1.23,-4.4,M,45.9,M,2.0,0000*43
$GNGLL,5227.28535,N,00501.98491,E,173532.95,A,D*7D
$GNRMC,173533.05,A,5227.28539,N,00501.98485,E,1.796,314.13,290925,,,F,V*0B
$GNVTG,314.13,T,,M,1.796,N,3.326,K,D*2F
$GNGGA,173533.05,5227.28539,N,00501.98485,E,5,12,1.23,-4.4,M,45.9,M,2.1,0000*43
$GNGLL,5227.28539,N,00501.98485,E,173533.05,A,D*7C
$GNRMC,173533.15,A,5227.28542,N,00501.98480,E,1.615,316.32,290925,,,F,V*08
$GNVTG,316.32,T,,M,1.615,N,2.992,K,D*20
$GNGGA,173533.15,5227.28542,N,00501.98480,E,5,12,1.23,-4.4,M,45.9,M,2.2,0000*48
$GNGLL,5227.28542,N,00501.98480,E,173533.15,A,D*74
$GNRMC,173533.25,A,5227.28546,N,00501.98476,E,1.673,316.92,290925,,,F,V*0C
$GNVTG,316.92,T,,M,1.673,N,3.098,K,D*28
$GNGGA,173533.25,5227.28546,N,00501.98476,E,5,12,1.23,-4.5,M,45.9,M,1.3,0000*45
$GNGLL,5227.28546,N,00501.98476,E,173533.25,A,D*7A
$GNRMC,173533.35,A,5227.28550,N,00501.98470,E,2.104,325.58,290925,,,F,V*0E
$GNVTG,325.58,T,,M,2.104,N,3.896,K,D*2C
$GNGGA,173533.35,5227.28550,N,00501.98470,E,5,12,1.14,-4.4,M,45.9,M,1.4,0000*47
$GNGLL,5227.28550,N,00501.98470,E,173533.35,A,D*7A
$GNRMC,173533.45,A,5227.28554,N,00501.98467,E,1.412,332.22,290925,,,F,V*01
$GNVTG,332.22,T,,M,1.412,N,2.615,K,D*22
$GNGGA,173533.45,5227.28554,N,00501.98467,E,5,12,1.14,-4.5,M,45.9,M,1.5,0000*42
$GNGLL,5227.28554,N,00501.98467,E,173533.45,A,D*7F
$GNRMC,173533.50,A,5227.28556,N,00501.98467,E,1.477,335.66,290925,,,F,V*03
$GNVTG,335.66,T,,M,1.477,N,2.736,K,D*26
$GNGGA,173533.50,5227.28556,N,00501.98467,E,5,12,1.14,-4.5,M,45.9,M,1.5,0000*44
$GNGLL,5227.28556,N,00501.98467,E,173533.50,A,D*79
$GNRMC,173533.60,A,5227.28559,N,00501.98462,E,1.638,326.98,290925,,,F,V*00
$GNVTG,326.98,T,,M,1.638,N,3.034,K,D*28
$GNGGA,173533.60,5227.28559,N,00501.98462,E,5,12,1.14,-4.4,M,45.9,M,1.6,0000*4F
$GNGLL,5227.28559,N,00501.98462,E,173533.60,A,D*70
$GNRMC,173533.65,A,5227.28561,N,00501.98462,E,1.193,331.47,290925,,,F,V*0C
$GNVTG,331.47,T,,M,1.193,N,2.209,K,D*27
$GNGGA,173533.65,5227.28561,N,00501.98462,E,5,12,1.14,-4.5,M,45.9,M,1.7,0000*41
